Business ID,Name,Latitude,Longitude,Category,Rating,Popularity,Google Place ID,Business Status,Distance (m)
5714be47498ecf6b9306ae3a,Amigo Resturant (مطعم أميغو),26.244824,49.981499,Restaurant,6.6,0.7050872304538669,ChIJo9QBI1ceNj4RsKe7bl3dMfI,CLOSED_TEMPORARILY,12.628937962034817
53556d0e11d272d79af43d04,KFC (كنتاكي),26.244824,49.981499,Fried Chicken Joint,5.6,0.9996776459233192,,NOT FOUND,10870.239676952062
5bb08ac7446ea6002cdbde3c,سكبة,26.245131,49.981418,Restaurant,No rating,0.9821875700074578,ChIJuwsGPBofNj4Rmh7HC9TkcC4,OPERATIONAL,34.640068432709455
566e5bb4498e8b885036a42e,مطعم حسن ابراهيم الابراهيم,26.245131,49.981418,Restaurant,No rating,0.1477154465715045,ChIJFWj_P1ceNj4RwU4ZxISVJI8,OPERATIONAL,17.9415971464855
55d2a54e498e49129ce7df99,Alshyokh 2 (مطعم الشيوخ 2),26.245332,49.981542,Fast Food Restaurant,No rating,0.9812885727490712,ChIJuyVNQFceNj4Ri7vOGmgaBNY,CLOSED_PERMANENTLY,10.06035675962323
5c07ee8f112c6c002c880014,مطعم راكان الشمري البخاري,26.245379,49.981826,Halal Restaurant,No rating,0.996023010033118,ChIJr8MdQVceNj4RLYMLJjQ3NrM,OPERATIONAL,12.206720800175498
56ed35dc498eb51b21ebc71c,Hungry Bunny (الارنب الجائع),26.244824,49.981499,Fast Food Restaurant,No rating,0.6214111986427325,,NOT FOUND,16016.090565976217
62e4f7942b90dc3b9c9facbc,Bahi,26.241187,49.974281,Indian Restaurant,No rating,0.3637758628119696,,NOT FOUND,3918576.8641299237
4fd8281ae4b02076fe49f71b,Dosa Shop,26.241914,49.970135,Asian Restaurant,No rating,0.5155713895280692,,NOT FOUND,17996.72210363546
51d1560c498e2a039f779e7a,مطعم حارة البركة البخاري,26.240639,49.97065,Argentinian Restaurant,No rating,0.9301611900200664,,NOT FOUND,435.7343936170154
588862396f20d11e265019f7,مطعم منال بروستد وشاورما,26.238534,49.971741,Shawarma Restaurant,No rating,0.9222895040479184,ChIJzVZZHPweNj4RBeZJQ_FhFyo,CLOSED_PERMANENTLY,25.9621063393359
5fcdf6606fd0767a94aa1185,مطاعم الغرن الذهبي البخاري,26.238366,49.971963,Restaurant,No rating,0.9943152003310696,ChIJf-Ur-PseNj4Rz_LobUC-aNE,OPERATIONAL,22.08916054375888
58511218040d5329d9e4f67a,Mazak Al-Madina Restaurant,26.23815,49.971902,Restaurant,No rating,0.0624020118315451,,NOT FOUND,19652.001950834558
5005c247e4b0de12a41565ef,Canton,26.241627,49.984449,Chinese Restaurant,No rating,0.2715901059189213,,NOT FOUND,19353.553307607872
4f1e8a99e4b00c461cd34a9a,Medinah Restaurant Dammam Industrial City 2,26.247069,50.003041,Restaurant,No rating,0.6980945855180497,,NOT FOUND,17885.391876593723
50617253498e317f7b5d9476,مطعم انعام البخاري,26.255813,50.000193,Restaurant,No rating,0.6272188156221481,,NOT FOUND,17813.88094455047
57b5596c498e183a9bfc0bda,Alkhafeef (عالخفيف),26.23893,49.985902,Restaurant,No rating,0.1207149835820619,,NOT FOUND,558.8503760252928
5fce0d71939eba37c73ee617,الوحيد,26.235897,49.990139,Middle Eastern Restaurant,No rating,0.9967607793444344,ChIJ165XJ-ofNj4R-sI3B7EafwE,OPERATIONAL,82.33467875996786
6427317e7addef16b412d56a,Ozi Burger,26.25853,50.07674,Burger Joint,No rating,0.9716917426524004,,NOT FOUND,14887.305188298677
5f69d676501fe9418689f762,مطعم النوخذة الشرقي,26.238206,50.195849,Seafood Restaurant,8.0,0.970403677308651,,NOT FOUND,630.5674112255057
5075d89ae4b0f763ad94fd25,دنيا السعادة,26.249721,50.2017,Sandwich Spot,6.9,0.9894790896907604,,NOT FOUND,4018.8665176235777
61d48e19964afc0f55635bf3,بوابة الفريج,26.24936,50.198657,Seafood Restaurant,No rating,0.9259403063588882,ChIJbVvzkqXDST4R0U2V1FLud5g,CLOSED_PERMANENTLY,9.516491252336035
6275945c1f78e52356fa82aa,Madghout Thahamah (مضغوط تهامة),26.249784,50.198761,Restaurant,No rating,0.992572738317406,,NOT FOUND,19977.856151253458
56ea82e6498edfc2496f3171,Silver Tower Restaurant (مطعم ومطبخ البرج الفضي),26.249519,50.199453,Middle Eastern Restaurant,No rating,0.92447489385153,ChIJ1YzMpcDCST4RxxWkhQVnNjc,OPERATIONAL,22.764185637301797
56ff90ff498ec999631a2bd2,Brosted Al Sham,26.249643,50.2006,Fried Chicken Joint,No rating,0.9689006901216168,,NOT FOUND,4556.014006877181
517505a7e4b0ffeb9d699f1e,اسماك الربان,26.249475,50.201293,Seafood Restaurant,No rating,0.9012913164915268,,NOT FOUND,24222.73974535245
6126865d9bce394bcd031d97,مطعم بخاري,26.250108,50.201445,Sri Lankan Restaurant,No rating,0.2261118973960747,,NOT FOUND,20072.40296341409
5d5e6efa719d570009fa8c53,المضغوط الناضج,26.250151,50.201587,Middle Eastern Restaurant,No rating,0.4112673939454666,ChIJe4x0e8DCST4RsvRgKbDrTq0,OPERATIONAL,14.449576174349838
568bdc3b498e8ee87e6c0192,Al Shap Bukhari Restaurant,26.259216,50.192188,Middle Eastern Restaurant,No rating,0.6557032101301337,,NOT FOUND,1308.8081640396565
52bc0b07498ecbeb50dae0c1,Cacoo Sambka,26.238637,50.194756,American Restaurant,No rating,0.7749401936348492,,NOT FOUND,
54175288498e6856c663efe7,Herfy (هرفي),26.249815,50.202502,Fast Food Restaurant,No rating,0.9018173620069888,,NOT FOUND,12186.982836031844
60b381f7a743f827940cc5cb,Sea Fast,26.240167,50.198307,Seafood Restaurant,No rating,0.7523452862564347,,NOT FOUND,519545.93582185666
5c8f40dc75eee4002cf11c67,اب الخضراء,26.250829,50.202826,Restaurant,No rating,0.9768915719993488,,NOT FOUND,1496629.8525812516
5ed7aebc5d29f30008d21947,Tayyaba Restaurant (مطعم طيبة),26.254912,50.201401,North Indian Restaurant,No rating,0.6488395686426773,,NOT FOUND,3054.2042894591305
561e181f498e3dede4fa6761,Blue Garden (بلو جاردن),26.255244,50.220898,Lebanese Restaurant,8.1,0.9824526245913754,ChIJRbM8f7_DST4RRf5n_pah-uU,OPERATIONAL,19.120883190951464
63ea568514027f420411ef88,Chef Eyad Smoked Meat,26.255537,50.221155,Steakhouse,7.9,0.9661827882917298,ChIJJ2TzfSfDST4Rnb8dGTbr73Y,OPERATIONAL,11.239438143657349
55fc1953498eecd40ebc8467,Q Burger,26.25679,50.204094,Burger Joint,6.9,0.983705113913904,,NOT FOUND,19768.620772337705
5ff075e602475516d835032d,Ocean,26.255244,50.22137,Seafood Restaurant,6.9,0.0754624816823436,ChIJcxViI0XDST4R4z8LvkdxPfQ,OPERATIONAL,61.08275941611939
51952912498ea6c3950b15c4,هارون الرشيد,26.250671,50.211539,Lebanese Restaurant,No rating,0.4918149822772761,,NOT FOUND,22711.163720589197
55fdb072498ef77d568f3808,Cocktail (كوكتيل),26.250717,50.211586,Sandwich Spot,No rating,0.9521549078794104,,NOT FOUND,4597.760116317056
50b07bcee4b0d8a9f06bc87a,Great American Cookies,26.240495,50.205123,Dessert Shop,No rating,0.0890770406182287,,NOT FOUND,33161.533122136854
55e05ae1498ed66529b1bb4d,خليها بحري,26.258848,50.20438,Seafood Restaurant,No rating,0.8765421274783632,,NOT FOUND,4660.6015802814145
5f9da34f8c590222cdb4151f,المچبوس,26.260338,50.204638,Sri Lankan Restaurant,No rating,0.7652334013852532,,NOT FOUND,3196.7556722038635
59fc4577ca18ea37453f5354,دار العقبه,26.259953,50.203382,Restaurant,No rating,0.31920942873962,ChIJF7wg6JfCST4RhA9QaFunQZU,CLOSED_PERMANENTLY,79.68841826544615
50b7b64ae4b04927890dc6cf,لا استانسيا,26.254491,50.220211,Argentinian Restaurant,No rating,0.0931852055961223,,NOT FOUND,5006.9889805326175
4f4e52aae4b0f92025a3c131,D.Tandoori Restaurant,26.255567,50.221226,Asian Restaurant,No rating,0.8863365939805363,,NOT FOUND,5484.272447122692
51717d96e4b0ab126229b363,مطعم عمو حمزة,26.255551,50.220818,Seafood Restaurant,No rating,0.8600914580420559,,NOT FOUND,3420.001335533175
525eb3c7498e0707539de508,Roshan Indian Restaurant,26.255613,50.221273,Indian Restaurant,5.8,0.4617301887501409,ChIJpTTtwfTCST4R8X_vGGpaYHw,CLOSED_PERMANENTLY,40.714449323526985
5f9815e01f67181f27070f14,أوريا,26.255812,50.221162,Restaurant,No rating,0.9009155696947684,ChIJUw_P2a7DST4RKWOAHxd4TEQ,OPERATIONAL,9.435003987831669
dd2e74ac8813497386d9f890,Bluemar Restaurant,26.258651,50.219415,Restaurant,No rating,0.1189363860673087,,NOT FOUND,424.2087723616554
0903a09e0bb74fcaf0d2b591,Le Cafe de Paris,26.258574,50.219023,Restaurant,No rating,0.8122769003394246,,NOT FOUND,2179.4518287672736
53398572498e18d7e6b96c1b,Ibn Khaldoon Plaza Center,26.275827,49.96724,Fast Food Restaurant,No rating,0.2388760289195184,,NOT FOUND,18494.076070539657
64612c24993bb400f54696fb,Mohammed almashhed,26.260971,50.074734,Restaurant,No rating,0.3823606545976832,,NOT FOUND,20615.991120031103
4f2663b3e4b0b653a57a27a6,مطاعم شواية الخليج,26.269663,50.123135,Middle Eastern Restaurant,No rating,0.8363350011287738,,NOT FOUND,6671.782037196828
5379e978498e3b7044e19a91,Chilis,26.270149,50.137775,Mexican Restaurant,No rating,0.9282413454586728,,NOT FOUND,8494.31815102394
4ef5a09dc512f2277718812d,ملك المندي,26.268732,50.186385,Middle Eastern Restaurant,No rating,0.9304868425996669,,NOT FOUND,1455.603596158674
507ef199e4b08b12cc12c812,بروستد بركة,26.272264,50.18534,Fast Food Restaurant,No rating,0.0086296514322215,,NOT FOUND,1525226.761958855
4de2f27e2271bfb844a8c03a,Kibdat Al-Hijazi,26.270099,50.186675,BBQ Joint,No rating,0.9374381583397,,NOT FOUND,12382.69446972402
52a1a65f11d2ab6a996f828e,Shwaiat Al-Khalij (شواية الخليج),26.269443,50.189858,Restaurant,8.8,0.993587254668654,ChIJ_4couAPoST4RmT-QIhwNC5E,OPERATIONAL,8.320196820694356
5a018a9035811b195c94ee9e,مطعم عيال بحر,26.26861,50.187361,Seafood Restaurant,8.7,0.9904059317894316,ChIJeaGIawHoST4RlaQeQlhlSfI,OPERATIONAL,30.622820842673235
4bb3ac6ba32876b07c0c02fe,Abu Hilal Restaurants (مطاعم أبو هلال),26.270769,50.193641,Breakfast Spot,9.1,0.9947645946318308,ChIJR9ej0hzoST4RgaqpLZecHKE,OPERATIONAL,15.417962183423295
522b3bd0498edcff591659c2,مطعم ومشويات هارون الرشيد (رايق),26.2702,50.193141,Shawarma Restaurant,8.6,0.9957290114101778,,NOT FOUND,3316.5156242535736
53347813498eaacc9244080c,مطعم مشاوي الغربية للسيريه,26.269952,50.191318,Ethiopian Restaurant,8.1,0.9892160669330294,ChIJR3XJBwPoST4RpR82Crchp7U,OPERATIONAL,27.97670606420579
4dadc535f7b1e810c136da4b,Peshawari Kebab House,26.272414,50.194448,Pakistani Restaurant,8.8,0.9926729374632082,ChIJn-gfoxzoST4RfYC22eSWqMY,OPERATIONAL,2.674545744270602
5c09732b840fc2002ca64559,مطعم تكة اهل البحرين,26.269152,50.190347,Restaurant,7.7,0.958818151075262,ChIJOeQCwknpST4RH6fswZLLSwY,OPERATIONAL,24.630061803446143
4ef770299adf7bbf88a713ed,بلاد الشام,26.274682,50.190076,Middle Eastern Restaurant,8.5,0.9883768990869352,,NOT FOUND,1457953.1868516768
5697e7b138fa599313eb4d27,Lahza Shawarma & Grill,26.269522,50.191194,Shawarma Restaurant,7.5,0.9633521624228152,ChIJMZg6AQPoST4Re8Q4bDoh7Jc,OPERATIONAL,10.027623730462974
5294371e498ee94403beffb5,كودو,26.268749,50.187738,Fast Food Restaurant,7.5,0.969226337345474,,NOT FOUND,4116.580631827085
4fd1e76ce4b0d87d3582010e,Shwaiat Al Khalij,26.278277,50.190431,Middle Eastern Restaurant,8.3,0.9810874112298192,ChIJxzL-eADpST4Rdtuo--tfXPE,OPERATIONAL,27.045840036388952
5aec82d465211f002cb8d71e,Hashi Basha (حاشي باشا),26.269923,50.192387,Middle Eastern Restaurant,7.4,0.9681491965280996,ChIJpUkYghDpST4R3EJX8hcw9iU,CLOSED_TEMPORARILY,12.08666686911407
4e6fa160c65b6d433affdcf4,Kufah (كوفة),26.280091,50.191725,Fried Chicken Joint,8.4,0.984581856439674,ChIJBUBtHIfpST4R86d_oGEOHno,OPERATIONAL,12.84953244577231
5354e240498e5f75d1611123,مطاعم شواية الخليج,26.269075,50.19019,Mediterranean Restaurant,8.9,0.9951904410014903,ChIJ_4couAPoST4RmT-QIhwNC5E,OPERATIONAL,44.649732607088666
4d6a1ab20a25b60cbb902d90,Mandi King (ملك المندي),26.27065,50.196505,Middle Eastern Restaurant,7.6,0.9868112874337748,,NOT FOUND,1867.5977276280632
5051c678e4b06a9490d48db9,Top Meal,26.268817,50.20501,Fried Chicken Joint,7.4,0.981914054182688,ChIJWUkNnJ_CST4RuHev_wHc4_Q,OPERATIONAL,42.0172806638768
4d6a6e8a9bd6a143941a6ddf,دجاج كنتاكى,26.268476,50.187594,Fried Chicken Joint,6.6,0.9825528237371776,,NOT FOUND,7298.75263682326
504b6850e4b03dcfecc208f3,مطعم الصقر الذهبي ٢,26.273028,50.194759,Middle Eastern Restaurant,7.0,0.9605090116606756,ChIJqcybYBvoST4RpUk_UFMhDzw,OPERATIONAL,16.303132174261123
52fe5a4f498ed97473c7ec5b,بروستد الكندي,26.272092,50.195064,Fried Chicken Joint,6.8,0.9863603912776644,ChIJa2HSwo_pST4REzUSWzQUrRY,OPERATIONAL,78.55491762100559
503b7671e4b01034f2ec2dd7,Herfy (هرفي),26.269136,50.189702,Fast Food Restaurant,6.5,0.9496248794479027,,NOT FOUND,9693.694580404132
4f9d2d17e4b061449380684b,Meshwar Restaurant (مطعم مشوار),26.269505,50.190549,Middle Eastern Restaurant,6.2,0.9785072832254104,ChIJTbZ3QwjpST4RQQLvhWI482g,OPERATIONAL,18.175729603401674
4e2acdec18387cce066b702d,Fillfilah (فلفلة),26.269184,50.189601,Middle Eastern Restaurant,6.0,0.969577034355782,ChIJ9aUNzwPoST4RxfDU-csbL-Y,OPERATIONAL,29.082581909557238
5d234b63b55cb80023b1d1ab,Chef Pasha,26.268844,50.189484,Restaurant,No rating,0.0747109880888265,,NOT FOUND,
4fc668bce4b09c44d2312608,منتو و يغمش الطائف,26.269075,50.19019,Middle Eastern Restaurant,No rating,0.1273656392079257,ChIJ_____wToST4R7SkrrW2c3EI,OPERATIONAL,78.1691279428487
58ab31b59958420640263983,Gunesh (قونيش للمأكولات التركية),26.269582,50.190234,Turkish Restaurant,No rating,0.0187998647311531,ChIJ0zEdsgPoST4RbO7raoitI-0,CLOSED_PERMANENTLY,36.83238883084378
5a5f4a89c58ed758fa3363d3,تتبيلة زمان,26.269458,50.189795,Sandwich Spot,No rating,0.8102353427437031,,NOT FOUND,23810.14155664522
52821c11498e22a8874e2de2,DURAT ALSHAWAYIH (مطعم درة الشواية البخاري),26.268903,50.188288,Afghan Restaurant,No rating,0.9598451923197356,ChIJaYnB1QPoST4RYlAKAJVpInw,OPERATIONAL,71.5578719305958
4ee4b10d722ea7b94561af59,مطعم تراز للكبسات,26.269491,50.19132,Middle Eastern Restaurant,No rating,0.9353089264914016,,NOT FOUND,398269.8489889571
4e1cabfba80980ebf5a44801,Baraka Restaurant,26.268473,50.187693,Fried Chicken Joint,No rating,0.0001127240390275,,NOT FOUND,3849.120682545289
55c58dcf498e6be950bf64ce,كفتيريا صباح النور والعافية,26.269967,50.191019,Afghan Restaurant,No rating,0.9161082651770394,ChIJnWs1r_rpST4R86nEWyqAyFc,OPERATIONAL,18.475765087440074
5e39d32f3fdab200084547f1,Broast Al Tazaj (بروست الطازح),26.269983,50.191427,Fried Chicken Joint,No rating,0.9752257612003856,ChIJVxtUBxPpST4RKGAf64HiS88,OPERATIONAL,19.68098757582343
522b4de711d284ab80f94b92,مخبازة الصقر الذهبي,26.273489,50.194756,Middle Eastern Restaurant,5.9,0.9486729875627812,ChIJqcybYBvoST4RpUk_UFMhDzw,OPERATIONAL,59.33597417623482
53af32be498e1da25de62c6c,مطعم العمدة | للأكلات الشعبية المصرية,26.278909,50.192331,Restaurant,6.0,0.9513282649265415,,NOT FOUND,20789.09621562364
525ecece498e9fa9e9d9fb99,Band burger,26.271108,50.194614,Burger Joint,No rating,0.9744742676068686,,NOT FOUND,15533.565845127834
52552308498eb3cf4a957af7,شباب البخاري,26.270771,50.194821,Afghan Restaurant,No rating,0.971418193659899,ChIJG5663RzoST4RaDgTljZVhxc,OPERATIONAL,11.671236797513227
50a61760e4b0cd103aac5e2b,مطعم ومطبخ نور الحجاز,26.267993,50.197025,Middle Eastern Restaurant,No rating,0.9748625392968524,,NOT FOUND,25441.06536743613
5309faf2498eb8684e0726ed,مطعم مكة,26.271463,50.195524,Indian Restaurant,No rating,0.7452060971180221,,NOT FOUND,1980.8353118420441
5616cd1c498e0e4ac4989680,مطعم ومطبخ ذوق عدن,26.270664,50.195734,Restaurant,No rating,0.9294347515687428,ChIJo_CvAR3oST4RFXDaFyerglM,OPERATIONAL,26.664882017793563
5bacfdf93d479100398d155d,Joafa Restaurants,26.27422,50.189135,Turkish Restaurant,No rating,0.8856978244260467,ChIJA2G82wXoST4R-64hTxEUHMg,OPERATIONAL,55.9389908597261
5b48c04167af3a002c8468fb,ماكدونالدز,26.26643,50.212952,Burger Joint,8.8,0.99495246803021,,NOT FOUND,9533.50768819797
5c1b61392db4a9002c8c2986,Raising Cane’s (ريزينج كينز),26.268845,50.216035,Fried Chicken Joint,9.1,0.9904184566826568,ChIJHW4gKJjDST4RUnYHqQUvbcY,OPERATIONAL,42.43374030195521
5ff25ce74c12d24366ac950a,Golden Gate Restaurant (مطعم جولدن جيت),26.272377,50.215463,Lebanese Restaurant,9.0,0.9879385278240504,ChIJEzvlqUzDST4RG4R60fzV7Gs,OPERATIONAL,19.909875365427997
57fbd22e498e56a512c6d413,مطعم راعي المشويات,26.269356,50.20658,Middle Eastern Restaurant,7.9,0.9698150073270624,ChIJ45ODVZ7CST4RNAVAQ-OKpIE,OPERATIONAL,23.07202346794725
5c792323364d97003937579c,Palm Grove (لذة النخيل),26.277304,50.212225,Indian Restaurant,9.1,0.9958793101288812,ChIJOzxBRCboST4Rx_aVZmoZSl0,OPERATIONAL,15.769964428431246
520e0ffe11d2fbdf7cfc4063,Shalimar Restaurant,26.27692,50.212384,Indian Restaurant,8.8,0.9511654413146128,ChIJE9dvRiboST4RbhQnKlOsx7Y,OPERATIONAL,190.05329781548
5ddd5d21d8ba0400077ac01b,McDonald's,26.26643,50.212952,Fast Food Restaurant,7.5,0.381207650204782,,NOT FOUND,9533.50768819797
4df77aa8b0fba21ee54f0a25,كودو,26.279572,50.207854,Fast Food Restaurant,8.3,0.9748249646171766,,NOT FOUND,3029.5331014372837
5ad5cd4a1cf2e111bab8ae57,Makbous Express (مكبوس اكسبريس),26.269214,50.216175,Middle Eastern Restaurant,7.6,0.9741861950626872,ChIJq13phYTCST4R33YyYZQ4GxU,OPERATIONAL,29.660124645612953
4dfbbdcd52b14520b6cf321d,Fawaz Broasted,26.268811,50.213331,Fried Chicken Joint,7.4,0.9829410954271616,ChIJhSjcP5vCST4R6Kix1YUHpEA,OPERATIONAL,132.66249207628474
56534527498e84bcdaf7933a,باسكن روبنز,26.273919,50.206976,Ice Cream Parlor,7.6,0.9431745594368808,,NOT FOUND,15791.438248438275
6370b293414b291c3976551d,PZA (بـيزا),26.272649,50.22083,Pizzeria,8.0,0.9715183928057012,ChIJsUJg6M7DST4RzKWZjmxcNB0,OPERATIONAL,15.12197776632371
5baf6253bf7dde002ca1ffc4,Darin Restaurant (مطعم دارين البحري),26.276034,50.217218,Seafood Restaurant,7.7,0.934494808431758,ChIJ18Bv0inoST4RcYbZ5-qCK6A,CLOSED_PERMANENTLY,32.522382610044666
4ce2820541ed224b4ef1ef3c,Al Sanbok Restaurant (مطعم السنبوك),26.271784,50.220751,Seafood Restaurant,7.7,0.9580917072681956,ChIJaYqzNYHCST4R_ywHFFmXIZc,OPERATIONAL,5.339025514519497
60e7bbd49f7f843f60be41cc,Karam Beirut (كرم بيروت),26.272358,50.221107,Middle Eastern Restaurant,7.7,0.9811249859094952,ChIJKzE4UlLDST4RkaJBh5V3mBQ,OPERATIONAL,8.893906548728951
538ee90d498e248f6fce155c,كشري العمدة,26.27093,50.212421,Falafel Restaurant,7.1,0.9470322265502686,ChIJs2-k55zCST4RQaVCuzfasgc,OPERATIONAL,44.4468471533685
59089ae95d891b37234c78cb,SunRoom Cafe and Restaurant,26.271953,50.221238,Café,7.6,0.977467717087712,ChIJ13byMYHCST4RDO9g0pDdu-o,OPERATIONAL,22.399033709887487
4e64dd9f2271573ad8a44ae8,Dominos Pizza (دومينوز بيزا),26.265551,50.210413,Pizzeria,8.1,0.9820518280081664,,NOT FOUND,3442.2421118133416
54132ab6498eaf5ffe72c50c,حلبة ديراب,26.277456,50.210887,Fast Food Restaurant,9.0,0.9881980436268368,,NOT FOUND,411995.9398535626
4c3d9d36a97bbe9a6907fcdd,Golden Juice,26.280005,50.210808,Juice Bar,7.2,0.9245625681041068,,NOT FOUND,328.68429379987447
4bfd83594cf820a1c294ecf4,Karam Restaurant,26.278682,50.208913,Middle Eastern Restaurant,7.0,0.9439385779236232,,NOT FOUND,1369.1445291632467
51402e9be4b0268b6e3545da,Laguna Eastern (لاجونا إيسترن),26.271892,50.221018,Asian Restaurant,7.0,0.8251900652546937,ChIJ_xj8M4HCST4R0_ZOTXuafAM,CLOSED_TEMPORARILY,12.972535750747152
501fd3d9e4b0d43ab6c32366,PHD #58 Thoqbah,26.26486,50.20947,American Restaurant,No rating,0.9347202565098132,,NOT FOUND,
60d065d9af9db1534f585d08,One Thousand Burger (1000 برجر),26.269426,50.2068,Burger Joint,No rating,0.9700154056186672,ChIJdV0V1E3DST4RYLIVVj-K3L8,OPERATIONAL,3.881319322871424
612a891b0a67d76599561989,Thaza Restaurant,26.269625,50.206627,Indian Restaurant,No rating,0.933129595070202,ChIJvRiobqnDST4RpfZBg5Kzzps,OPERATIONAL,26.0269752711546
61a67792752ed37e4db6e4b4,مطعم الدار العربي,26.269319,50.205679,Yemeni Restaurant,No rating,0.978356984506707,ChIJ0yVPp5_CST4RPR1TaknfH9g,OPERATIONAL,10.538223860755359
4f90587be4b000f3fc1ec97f,Sukh Sagar,26.270869,50.212909,Indian Restaurant,5.7,0.8778822910534688,,NOT FOUND,2134.282183194765
5067384ee4b0bb47b20f48b2,بروستد فواز,26.266016,50.213002,Wings Joint,No rating,0.9617239263035282,ChIJhSjcP5vCST4R6Kix1YUHpEA,OPERATIONAL,183.39834739817826
54e38a50498e94a8f116d81b,Fresh Burger,26.268523,50.20314,Burger Joint,No rating,0.9350709535201212,,NOT FOUND,7424.988717247247
4dd51f2922716ea3ce6ce23e,Chic King Fried Chicken,26.271323,50.206772,Fried Chicken Joint,No rating,0.9303114940945127,,NOT FOUND,34813.46455441717
52f5182b498e334480324c5c,شباب البخاري,26.269196,50.213062,Afghan Restaurant,No rating,0.951353314712992,ChIJT08dYJvCST4RQr7xmvM48o4,OPERATIONAL,33.39253715700323
52e55c10498ea9eceb2d1b23,Al Tabaq Al Hijazi For Montu And Alegmsh,26.268339,50.203189,Restaurant,No rating,0.9580541325885196,,NOT FOUND,537075.3492027638
562a0a9a498edddd9f482712,مطعم الركن البخاري,26.268523,50.202904,Diner,No rating,0.9565511454014854,ChIJb0YSNKDCST4RWaKQOO_Pxlw,OPERATIONAL,3.6321992757780057
4d4d8b6672eba14366c54412,Saudi Burger,26.269429,50.202726,Burger Joint,No rating,0.9575781866459588,,NOT FOUND,2449.8771725387446
60b60b5d0b27be142b571eab,Bassam Brosted,26.261826,50.204462,American Restaurant,No rating,0.1008253904635463,ChIJq7yRru7DST4RumGtrWBUsV0,OPERATIONAL,11.783940132241149
5ad4749fbb2a4741a889ff25,BBQ Villa,26.261843,50.204361,Indian Chinese Restaurant,No rating,0.9578662591901403,ChIJ04857nfDST4RllxQOdKeIO0,CLOSED_PERMANENTLY,19.481754714302635
5614a936498ec8d9d77a7d76,Capri Restaurant,26.267693,50.215335,Buffet,No rating,0.9231848298493256,,NOT FOUND,3566.240633920279
5cc8012416ef67002ca4cf44,مطعم رجال ألمع,26.267629,50.200425,Asian Restaurant,No rating,0.9660575393594768,ChIJ1WmHNT7DST4RG_wrbwVJp0E,OPERATIONAL,18.31987592433162
519f53b7498ec90aa71123e3,Southern Bell,26.27276,50.214596,Southern Food Restaurant,No rating,0.9387156974486792,,NOT FOUND,5087614.342348643
5354255511d2d899c255eb4c,Purple,26.272852,50.21469,African Restaurant,No rating,0.8393932941721672,,NOT FOUND,3501.5651959375314
53513307498e721dc12d9c04,Chexz,26.272944,50.214548,Czech Restaurant,No rating,0.5389962550569256,,NOT FOUND,
5b33dd8f3260db001c5b9ff1,Brauger (براوجر),26.269706,50.216282,Burger Joint,7.9,0.8013551934469758,ChIJY4nJh4TCST4R-uw51FlMR6A,OPERATIONAL,29.520223502810644
5a1c78a7ad17892423b68b7c,Burger Chef (برجر شيف),26.269629,50.216361,Burger Joint,7.7,0.8573539910572262,ChIJS0TxhoTCST4RbeRV2Qnfj_k,CLOSED_PERMANENTLY,21.51306088540027
5936ee610336930dc2ccf5f1,Como Seafood Restaurant,26.278263,50.218935,Seafood Restaurant,7.9,0.979409075537631,ChIJSVZ9gSnoST4Rd2ymViWlLok,OPERATIONAL,4.578736634669259
61c7ae2f985d606695d63c5c,Shawarmer,26.267114,50.213059,Shawarma Restaurant,6.9,0.390914442454378,,NOT FOUND,4395.5434640595895
53c05f93498eecb3e87beba8,Marina Avenue Resturant (مطعم مارينا أفينيو),26.273028,50.221074,Restaurant,6.1,0.2750466552272642,ChIJ07BuFE3DST4R5D2BS7G7sRI,CLOSED_PERMANENTLY,42.80948334944954
57f8f518cd10bc6616a95b1a,Casa Sicilia Cafe & Restaurant,26.272767,50.220965,Italian Restaurant,5.8,0.9194899863478664,ChIJX2G2aoHCST4RfTXV9QztN4s,CLOSED_PERMANENTLY,25.166640262343773
4f2d4dd1e4b03caf52a21c04,New Cabalen Restaurant,26.268505,50.214119,Filipino Restaurant,6.0,0.9282323618191156,ChIJv5v1QZvCST4RtddtFAlE0SA,CLOSED_PERMANENTLY,136.74307238229989
51053ea9e4b0275f78fb5193,بروستد فواز,26.267751,50.21296,Restaurant,6.5,0.4787640435365288,ChIJhSjcP5vCST4R6Kix1YUHpEA,OPERATIONAL,9.519751427964458
4ce55916b31737045798a9f6,Sportiva,26.272383,50.221125,Italian Restaurant,No rating,0.148407459826405,,NOT FOUND,2383003.738525722
5af5bf398c35dc002c0ef943,Chick Time (تشيك تايم),26.269138,50.21649,Fried Chicken Joint,No rating,0.8875515086233889,ChIJw3jmdiXDST4R9nOtnnuGgkw,CLOSED_PERMANENTLY,9.214623737637162
5c59ed57fdb9a7002cd6f8da,Marina Palm Restaurants (مطاعم مرسى النخلة),26.268769,50.216114,Middle Eastern Restaurant,No rating,0.7292994827219098,ChIJQXfKzF3DST4RJ6t5YdxASYE,CLOSED_PERMANENTLY,26.242210817306766
63fe79476c8ff84da002cb48,Kottu,26.267166,50.213046,Sri Lankan Restaurant,No rating,0.7740258764294035,ChIJq60SZcXDST4RgsborQxG97I,OPERATIONAL,40.81688200907772
4e453991ae60fa7232e2540a,Shawarma Inn,26.270194,50.213558,Shawarma Restaurant,No rating,0.5213486805024987,,NOT FOUND,11302323.03236719
5c70793b646e38002c205e9c,مشويات ليالي,26.268719,50.213237,Turkish Restaurant,No rating,0.8490875615285379,,NOT FOUND,21038.681746034294
51a87e40498e6dd85abcfaf2,Steak R Us,26.272944,50.214548,BBQ Joint,No rating,0.3433198481982941,,NOT FOUND,7426718.674416391
53598b30498e4683e0c07a90,Salad Bar,26.272944,50.214548,Salad Restaurant,No rating,0.8730101075888328,,NOT FOUND,3577.4263257050006
535a3a4d498ee16d010a43b3,Rj,26.272944,50.214548,Bistro,No rating,0.4096767325058554,,NOT FOUND,2622.2782725080106
52097c0911d227a41017f481,Gluten Free Resto,26.272913,50.214438,Restaurant,No rating,0.0174597011560476,,NOT FOUND,2888.9000984508184
53513359498e692b2eb621e8,Buffet Mix,26.272944,50.214548,Buffet,No rating,0.3967134680176851,,NOT FOUND,23026.940137184814
535a4ca9498e19044f6c18e9,Latin A,26.27276,50.214596,Latin American Restaurant,No rating,0.5471249107601358,,NOT FOUND,
51d7e91f498e3efc7bcac295,Hot Doggie,26.272806,50.214643,Hot Dog Joint,No rating,0.4353527636176901,,NOT FOUND,16134.726358418224
522a207e11d24fc9cade268a,مندي الرحاب,26.296254,50.03494,Middle Eastern Restaurant,8.3,0.999718016545999,ChIJVc0gYh7iST4RTPiTsKUNc1U,OPERATIONAL,17.607862530208426
4ed4adc58231c75edd615b87,House Of Iranian Cuisine,26.281488,50.026952,Persian Restaurant,No rating,0.8187483258982406,,NOT FOUND,14531.319878446237
58bdc1b804aa4f6f06af9811,Amo Hamza (عمو حمزة),26.294959,50.026702,Seafood Restaurant,No rating,0.9971402530158776,,NOT FOUND,19407.056742069653
63b699a8d9e6656328792511,مطعم ألذ طبق,26.284284,50.060532,Pakistani Restaurant,No rating,0.5029887878868176,ChIJ58oYduThST4RPpEsem-9XIk,OPERATIONAL,54.119882533247406
6219445950798804635b713f,المذاق العالي,26.284708,50.060771,Fast Food Restaurant,No rating,0.993750215248473,ChIJ58oYduThST4RPpEsem-9XIk,OPERATIONAL,2.3186767315479235
5d138a6d52b6b100232aad9e,Herfy (هرفي),26.297837,50.048899,Fast Food Restaurant,No rating,0.9900990156975288,,NOT FOUND,7327.847745229706
5def32099c404600081e8bf5,Iso Academy Dinder,26.290695,50.091827,Diner,No rating,0.3140984370689064,ChIJU1BWD17hST4RkA7W95VnftQ,OPERATIONAL,149.16266317258004
5f675a69e5c1881d231b2156,McDonald's,26.290687,50.104479,Fast Food Restaurant,7.5,0.8555785123966942,,NOT FOUND,6532.505232639924
620d2e099dc0df4af0a77ff3,Ronaldos Pizza,26.289912,50.100917,Pizzeria,No rating,0.3545454545454545,ChIJdcJi25ThST4Rw85CZfYYnL8,OPERATIONAL,13.976401759682677
61347bdb01e88621b4b62292,La Casa Pasta (كازا پاستا),26.290017,50.101297,Italian Restaurant,No rating,0.9423553719008264,ChIJDe6hSVDhST4Rvy4wzMEpbQw,OPERATIONAL,55.13545693270828
5034fdf6e4b0fff57d3e724b,Roma Restaurant,26.295354,50.092312,Middle Eastern Restaurant,No rating,0.4945022771856626,,NOT FOUND,14188.121889739085
504ef8d1e4b04187c829ee83,Dharahn Snak Bar Hills,26.297329,50.105565,Restaurant,No rating,0.3390495867768595,,NOT FOUND,698.4200270188012
5fcb6a5d4a774867c428d4b7,Pattis Seeds,26.284141,50.123459,French Restaurant,7.6,0.0332644628099173,,NOT FOUND,9110.710295750469
540f71f7498e4d4bbf396aa0,Saihat X Rahima,26.284561,50.117203,Asian Restaurant,No rating,0.8832644628099173,,NOT FOUND,
5eb9ae77d525fa00094452cd,Old,26.288017,50.116234,American Restaurant,No rating,0.2163223140495867,,NOT FOUND,3762.9973551850735
519ed26c2fc6c029649a6e95,كرسبي كريم,26.280212,50.117581,Café,No rating,0.5257771643954627,,NOT FOUND,3773.5864305799487
54fb0a33498ed85c976d7578,Noodle Z,26.29021,50.122629,Asian Restaurant,No rating,0.6739669421487603,,NOT FOUND,4824.419381945978
4f7a1c8de4b07cdfac5b403f,Little Caesars Pizza,26.289273,50.131975,Pizzeria,No rating,0.3979338842975206,,NOT FOUND,5964.022167292813
52d5397e498e0dfbff308eae,بروستد جوافه,26.284972,50.133343,Sandwich Spot,No rating,0.8101239669421487,ChIJ9aLT7gLnST4R0ARSIHYBwuc,CLOSED_PERMANENTLY,40.106820699542325
61aa2cc60ccb660c8a33469a,L’antica Pizzeria Da Michele,26.29627,50.129184,Pizzeria,8.1,0.8706611570247934,,NOT FOUND,9618.88785324206
527a56e9498e04371ed3b8a1,كودو,26.285341,50.133482,Fast Food Restaurant,No rating,0.6140495867768595,,NOT FOUND,5279.499357554321
52d635c6498e3c05512c918d,3La Kefk,26.293101,50.133271,Afghan Restaurant,No rating,0.793801652892562,,NOT FOUND,
52026728498e4398a4b2efbb,Applebee's,26.295422,50.154576,American Restaurant,7.2,0.9205045026991144,,NOT FOUND,2180.1605987227676
53d6f603498e3c6389e13af7,The Sands Restaurant (مطعم الرمال),26.286192,50.158007,Buffet,No rating,0.0055234779123507,,NOT FOUND,18536.444089702403
51eeea30498e5111b2d8ffef,برجر كنج,26.289514,50.160676,Burger Joint,No rating,0.7317794115805163,,NOT FOUND,1928.8938858272709
4d53c5c408a7b1f7d49e3592,Chili's Corniche,26.294573,50.151669,American Restaurant,No rating,0.8338842975206612,,NOT FOUND,6824.068719362187
531c5e66498e16546ce0f885,برجر كنج,26.295816,50.150574,Burger Joint,No rating,0.6020661157024794,,NOT FOUND,2043.8366612499292
6016dfbf6a753f4ae5c50323,Sakana House (ساكانا هاوس),26.290489,50.177307,Asian Restaurant,9.0,0.9567139690134142,ChIJgTLFZ-_nST4RsgNXqfI5KrM,OPERATIONAL,117.29184797210195
4bb5dbfe6edc76b07915301c,Fuddruckers (فدركرز),26.290354,50.180236,Burger Joint,9.0,0.9718816147092346,ChIJ9yxWRtjnST4RLVtFDmaRgJo,OPERATIONAL,28.866346721867785
600d79518d453c64cce7f645,Rosalie (روزالي),26.29052,50.178126,Café,8.4,0.9790458536340978,ChIJn_YDlxDnST4RrIphlNrl0f4,OPERATIONAL,36.19816771007235
600c0602ed33fd20c9bff9cb,Asmahan (أسمهان),26.290675,50.178439,Middle Eastern Restaurant,8.3,0.97101739707669,ChIJ0Q_S9UjnST4RHMz8oinFhAQ,OPERATIONAL,9.284525564904717
4c272a52136d20a1f48ce661,Royal Gulf Chinese Restaurant (مطعم الخليج الصيني),26.290416,50.180219,Chinese Restaurant,8.3,0.9820393031149408,ChIJKaf5pNnnST4RJQHhHmjWMQk,OPERATIONAL,42.74211280647052
4c129f141b5cef3bc3c9edc4,فدركرز,26.290923,50.180499,Bar,7.5,0.874199972445235,ChIJ9yxWRtjnST4RLVtFDmaRgJo,OPERATIONAL,97.15895312377341
52fbcd55498e57024e675ab6,Azal (أزال),26.28747,50.183826,Restaurant,7.3,0.9737603486930274,ChIJowYW2p_pST4RyJv8V63rMrc,OPERATIONAL,62.85337448877663
51b21d9f498ee1311a200900,اصفهاني للمأكولات الفارسيه,26.290094,50.181071,Middle Eastern Restaurant,7.2,0.6157488007414736,,NOT FOUND,2001.2472956433064
591ae7f2ad17896e9d8807cf,Indian Kitchen Express (المطبخ الهندي السريع),26.290309,50.181133,Indian Restaurant,7.1,0.5356020089928734,,NOT FOUND,13743.4962502043
53a31aa4498e8775e913efdd,Le Café,26.292721,50.180913,Café,8.5,0.9623877456444684,,NOT FOUND,3853.7818424593947
520e3bd411d22902498a71e3,الرواق المغربي,26.291691,50.180416,Moroccan Restaurant,7.0,0.860635513082251,,NOT FOUND,1905202.124635731
4d7101b1886c8eecc224e3bd,La Caravella,26.291845,50.180493,Italian Restaurant,7.0,0.9176112523640736,ChIJ36T_ptnnST4RbyUEtQ9NxgE,CLOSED_PERMANENTLY,19.52167681355105
58bd36582ec36429dc897314,Fata & Sanobar (فتة وصنوبر),26.295239,50.180015,Middle Eastern Restaurant,6.4,0.8902443606668253,,NOT FOUND,1042.2584670036017
62d814601062757ee5b09322,Dar Mubarak (دار مبارك),26.283656,50.180984,Seafood Restaurant,No rating,0.9762528024448592,ChIJx9BT8TXnST4Rq1hrfIxiHYk,OPERATIONAL,9.939465828635347
515521d4e4b02a486882443c,Islamabad Hotel - Bahrain Manama,26.290323,50.17989,Asian Restaurant,No rating,0.1361330644656254,,NOT FOUND,39863.18182463787
57a49a16498ec824ccd2dc6c,باسكن روبنز,26.29023,50.181004,Ice Cream Parlor,No rating,0.4543029270675467,,NOT FOUND,12751.432048672285
626d6e71511abe22cfe1eeb7,زافي,26.290339,50.180954,Fast Food Restaurant,No rating,0.1479565636702947,,NOT FOUND,13778.851119156463
536a48c111d2d6ad9631fe2c,يتصرمحون بروحون,26.291337,50.179977,American Restaurant,No rating,0.6895830463045303,,NOT FOUND,
5152c698e4b0cdd1ef4de83b,مطعم البحار,26.290386,50.180818,Asian Restaurant,No rating,0.9111859821395024,,NOT FOUND,2216.4639495999354
5819b1ded0b97a20be3ecb6c,دجاج كنتاكى,26.29037,50.180881,Fried Chicken Joint,No rating,0.5911874851266893,,NOT FOUND,2262.08937721454
56ae245e498eddf7baa7f312,كودو,26.29035,50.181022,Fast Food Restaurant,No rating,0.8704174546911988,,NOT FOUND,2257.895837839564
4bacf6e5f964a520e31e3be3,Leil Nhar,26.2906,50.180643,Lebanese Restaurant,No rating,0.170626620408061,,NOT FOUND,537714.021711903
50b24269e4b0dc720d81572e,Qtn 1001,26.290417,50.181164,Mediterranean Restaurant,No rating,0.4873561202890745,,NOT FOUND,
539045c5498ec1bfd0cb36c4,أبلبيز,26.292979,50.178188,American Restaurant,No rating,0.2881977931138137,,NOT FOUND,2146.5951877390926
53723c27498e71c4de1936ae,Milano,26.291138,50.180797,Restaurant,No rating,0.876529602585138,,NOT FOUND,2953.049351997165
5475d6b9498e321ddd691e99,Hungry Bunny,26.292366,50.180002,BBQ Joint,No rating,0.3059455668140429,,NOT FOUND,2410.7064429925094
5c239c9efebf31002cfac9a0,Fantastic,26.287224,50.183419,Restaurant,No rating,0.9798349219072908,,NOT FOUND,1787.251366262775
543e57ed498e61ef0cd524a2,Nola's Market Rashid Mall,26.292628,50.180347,Bistro,No rating,0.2577998772560464,,NOT FOUND,200.2731786503585
58ad6d13e9efba2b57a431eb,Il Forno,26.292766,50.180015,Italian Restaurant,No rating,0.3933317468468581,ChIJsWpY2NnnST4RwP-Et_kTb90,CLOSED_PERMANENTLY,62.591862323729956
5cb9d4e0588e36002cbe20f5,La Pasta Fresca,26.286579,50.183942,Italian Restaurant,No rating,0.7600981951628862,ChIJLe6wdkXDST4RC88I3t6MHDM,CLOSED_PERMANENTLY,16.872024830705403
532ad24c498e35931de5aaee,دجاج كنتاكى,26.287056,50.184112,Fried Chicken Joint,No rating,0.8974712240578149,,NOT FOUND,2358.513688832502
520e7f7d11d2c0d40d65cb84,Kono Pizza,26.29289,50.180691,Pizzeria,No rating,0.7788730101075888,,NOT FOUND,2319.5611568168715
5d49c26fc525bb0008cf7ca9,أسوار الخبر,26.287364,50.184504,Restaurant,No rating,0.9377137059906564,,NOT FOUND,886.1905917232566
52e9497911d20cb41ca67a95,Lacaravella,26.292461,50.181985,Italian Restaurant,No rating,0.8688267932515875,ChIJ36T_ptnnST4RbyUEtQ9NxgE,CLOSED_PERMANENTLY,144.59783810032678
52e1610c498e0002eb9bd3ba,Khafayef Restaurant (مطعم خفابف),26.292709,50.183809,Restaurant,No rating,0.8997006550519157,,NOT FOUND,15467.420404541115
52179eee11d20eb093be2e96,باسكن روبنز,26.298179,50.171685,Ice Cream Parlor,No rating,0.106436542628474,,NOT FOUND,11488.485714935641
5a4bb03e2b98442bd7b1a80e,كشري كمالة,26.280967,50.192145,Middle Eastern Restaurant,8.7,0.96838716949938,ChIJ17PEEw7oST4R4xtlQ0LQQJs,OPERATIONAL,53.826734595728226
5dc1428a2441690007a2b31f,Madhina (مطعم ماضينا),26.288228,50.188291,Restaurant,8.6,0.9940381508247642,ChIJvw0o6XPoST4RllN5HOiLjUg,OPERATIONAL,20.989454017052694
4ba629a2f964a5203b3839e3,Shawati Al Khaleej (شواطئ الخليج),26.2894,50.191997,Middle Eastern Restaurant,8.7,0.9896043386230132,ChIJe9_0XnLoST4RElQgPJYidro,OPERATIONAL,16.277538160086696
6237587278286d23dcf58858,Ninar | نينار,26.288443,50.188767,Lebanese Restaurant,8.1,0.9848448791974048,ChIJH1JLbH_pST4RkkJBnfxUtvo,OPERATIONAL,6.522233196744585
51648ba6e4b068ba2d9f6cb0,ليتل سيزرز,26.289031,50.191858,Pizzeria,8.0,0.9638030585789256,ChIJzwEAVXLoST4RzwMwjEhlkB4,OPERATIONAL,25.761823526395
609b04c8478c9011320eca62,AlRomansiah (مطعم الرومانسية),26.283053,50.201987,Middle Eastern Restaurant,9.2,0.9965055547901456,ChIJ3Yvb8OXpST4RbpQ2Ah5HvXE,OPERATIONAL,19.901785452277046
5c2f43c4a30619002c147de9,زاد البحارة,26.285556,50.202389,Seafood Restaurant,8.7,0.9589183502210644,ChIJV1YS2mLpST4RYez0XNGIOvY,OPERATIONAL,19.9252748003911
4d5054e44015b1f7073c65cf,Tamimi Markets (أسواق التميمي),26.29477,50.1995,Bakery,9.2,0.9974323968888166,ChIJCRkPT2noST4RJsgRN_n8oD8,OPERATIONAL,34.87798899839164
5de92b18a19dea000887d79d,سعف,26.288858,50.188066,Restaurant,7.7,0.977292368582558,ChIJlfxtYSfpST4RO9fzUbT7jd8,OPERATIONAL,17.70869634481295
586eae7552a051541b735494,Maestro Pizza,26.285084,50.192008,Pizzeria,7.4,0.9348079307623902,,NOT FOUND,1725.4084445548845
519621ad498effb25f980089,Spice Village (قرية البهارات),26.28491,50.187981,Indian Restaurant,7.4,0.962901266266705,,NOT FOUND,1784.034047891026
4e22c1cec65b2b5e35544b26,sea Foods Restaurant (مطعم ثمار البحر),26.290124,50.193519,Seafood Restaurant,8.0,0.9780689119625255,,NOT FOUND,17980.313810699263
57459247498e61bcc94c7cb9,Al Gidr Al Khaliji (الجدر الخليجي),26.291255,50.20237,Theme Restaurant,8.6,0.9735349006149724,ChIJo8r20qXpST4R0ZaIr3xvnSw,OPERATIONAL,17.62272455572067
4c0b7f2d340720a1ea338893,SD's Barbeq Je Burger,26.288802,50.192567,Burger Joint,7.6,0.9763905762703372,ChIJAdhn83LoST4Rks0CYVFAeUg,CLOSED_PERMANENTLY,31.30064926083847
5062e9d7e4b05099c9236b49,Sama Deeraty (سماء ديرتي),26.297298,50.193583,Middle Eastern Restaurant,8.5,0.9813629588807756,ChIJvbl-AHDoST4RYp7f_T7e56o,OPERATIONAL,31.639850123623642
52ebeaba498ebaf882d13380,Baskin Robbins (باسكن روبنز),26.294678,50.199642,Ice Cream Parlor,8.5,0.951616337470723,,NOT FOUND,13606.020025772095
520f9af111d2a574830fe47d,معجنات و شاورما اللذيذة,26.296298,50.19178,American Restaurant,8.3,0.9938377525331596,ChIJJTlEd3DoST4R4FiCrjv0s5E,OPERATIONAL,20.071739467861175
53d56626498e2d92dfba6de8,McDonald's,26.291257,50.19027,Fast Food Restaurant,7.7,0.941859445648226,,NOT FOUND,5970.668208653981
518360c3498eff622d323476,Hashim Resturant (مطعم هاشم),26.288894,50.192425,Falafel Restaurant,7.5,0.9761025037261556,ChIJlWsmjXLoST4RsQ9G9fzRDD4,OPERATIONAL,29.251698870808987
606e66ba12f1482e90b5c7c0,Baby Tais,26.294689,50.196968,Restaurant,8.1,0.9810122618704676,ChIJfwvIXy3pST4RzRBzrbZVNIU,OPERATIONAL,18.46438993684255
582ba350d1c8fe7d667ab5c9,بحري ونثري,26.283058,50.19372,Seafood Restaurant,7.3,0.9551608822534788,,NOT FOUND,267.4492398272116
57e017ef498ee572b40475dd,Koshari Station (كشري ستيشن),26.295604,50.189896,Egyptian Restaurant,7.9,0.960220939116494,ChIJEwMDNR3pST4RKz73UaznCD4,OPERATIONAL,18.93303967981511
5fb699c7ab3ef40ae35f783d,حارة ورد,26.281726,50.197316,Restaurant,7.6,0.9742362946355884,,NOT FOUND,349.928039152901
63b4c2b2dbf4d836a498d586,Rokn Warda (ركن وردة),26.292376,50.184731,Egyptian Restaurant,7.6,0.9774426673012612,ChIJ33WcYvTpST4RX_Tw1lWb7BQ,OPERATIONAL,40.76950131833188
58871ff084c4ed1e5a644d39,مطعم ليالي زمان,26.283429,50.195984,Restaurant,7.1,0.9743740684610664,ChIJw0N11xPoST4Rt0Z4nfdg9hs,OPERATIONAL,6.649414325625858
4d38b5deb5abb1f7755ae098,برجر كنج,26.294553,50.198022,Burger Joint,7.4,0.962199872246089,ChIJ_ZBr4mvoST4RslM3g3Ok89Q,OPERATIONAL,127.97134041087007
4e249ece62e1964dbb86b574,Sag Lebnani (الصاج اللبناني),26.291173,50.197729,Middle Eastern Restaurant,7.2,0.972908655953708,ChIJY_qyYGzoST4Rb_a9gTvZxf4,OPERATIONAL,29.660839512779177
626147d18b56135b671af02d,Om Ali (ام علي),26.282099,50.20179,Egyptian Restaurant,7.1,0.9741235705965606,,NOT FOUND,395010.4940826789
501718fce4b0daed3678c609,مظبية,26.290973,50.197132,Middle Eastern Restaurant,6.9,0.930536942172568,ChIJv-GpWGzoST4RBIbywR5cYbY,OPERATIONAL,9.874995038324887
4c07f3ecffb8c9b6067b6761,Marhaba Restaurant,26.288809,50.198939,Asian Restaurant,6.9,0.9497877030598314,ChIJ375eqhToST4RQO1jT19NTwY,OPERATIONAL,48.483657670995726
50d7299ce4b02521672e7fc0,KFC (كنتاكي),26.283676,50.197099,Fried Chicken Joint,6.6,0.9785448579050864,,NOT FOUND,8819.069092791968
530cbabc498e4284af2ba860,كويك ميل,26.289833,50.194008,Fried Chicken Joint,6.5,0.9657444170288448,,NOT FOUND,16597.52079411825
4ea971f029c2fa4821c76cd5,القرية الصينية,26.284136,50.196388,Chinese Restaurant,6.4,0.9679362733432696,ChIJmbssuzDoST4R0p29v1Y_1No,OPERATIONAL,38.573428083976495
4ed359456c2510ace45fa3e6,Mishwar,26.291035,50.197352,Middle Eastern Restaurant,6.5,0.9594318708433012,ChIJd-ZiXmzoST4Re85kDVe5q6s,OPERATIONAL,34.572035825746596
5dff34fd2cf03a00074a1040,مضغوط حاشيكم,26.282762,50.19067,Restaurant,No rating,0.9813003344146491,,NOT FOUND,15123.025854426265
515ef514e4b042876abdc9ba,Oroba Resturant (مطعم العروبة),26.288158,50.207785,Fried Chicken Joint,8.6,0.9961924324595132,ChIJUapUrbPpST4RGG3_wLibl14,OPERATIONAL,11.828495898093172
511946d0e4b0e64d3aa68248,Abu Hilal Restaurants (مطاعم ابو هلال),26.286197,50.212784,Middle Eastern Restaurant,8.8,0.9912576245287508,ChIJqbRSXzroST4RDr0O_DLB8Sc,OPERATIONAL,21.741395724778297
5124a034e4b07e332c2c2e03,مطعم شواية الخليج,26.28965,50.209931,Middle Eastern Restaurant,9.1,0.993061209153192,ChIJwRKjH03pST4RMC2LFM_I61I,OPERATIONAL,21.70914847176378
4cbf548397bc721e57e18467,Bikki (مطعم بكي),26.287118,50.211834,Indian Restaurant,8.6,0.9963803058578926,ChIJ4f0eADvoST4R9eqw-6tG46Y,OPERATIONAL,16.478615102646987
4c2ed625452620a1c3a21c0f,Al Quds Restaurant,26.283555,50.212297,Middle Eastern Restaurant,8.3,0.9762778522313096,ChIJ7X6nQiXoST4R1zbfE3Y7dUw,OPERATIONAL,30.2493285723201
4e92c413b8032b150ae5f5b0,Al Banoosh (مطعم البانوش),26.291644,50.207166,Seafood Restaurant,8.9,0.9879635776105008,ChIJ64sQkkDoST4RsctUTa_YBpU,OPERATIONAL,8.819816881780016
4df658651f6e818dae09f261,Waha Al Rehab Restaurant (مطعم واحة الرحاب),26.288733,50.214656,Kebab Restaurant,8.8,0.9950276173895618,ChIJO8FwsDDoST4Rzi-1UCGvCIs,OPERATIONAL,16.726862236489108
4bbf17f2f353d13ad3037e10,Phuket Restaurant,26.280439,50.213999,Thai Restaurant,8.5,0.976115028619381,ChIJnfGbiiXoST4RbgTJzAxTlho,OPERATIONAL,9.107758489155065
5d45fc2468b7bc000878cb89,The Cheesecake Factory (ذي تشيز كيك فاكتوري),26.282918,50.219898,American Restaurant,9.4,0.995478513545672,ChIJFyBCjjvpST4RWCkO3p0aJJo,OPERATIONAL,12.772788733533144
529220df498eecb6d98251af,باسكن روبنز,26.285934,50.211024,Ice Cream Parlor,7.8,0.975939680114227,,NOT FOUND,15095.04130754585
4d4c0573a33fb1f7c1bdb980,Al-Marsah Sea Food (المرساة للوجبات البحرية),26.288428,50.21686,Seafood Restaurant,8.7,0.9888403201362708,ChIJib-wEDHoST4Ride3VL_qorw,OPERATIONAL,60.42540528221691
4b9a319ff964a520d0a335e3,La Gondola (جاندولا),26.288215,50.218214,Italian Restaurant,8.9,0.9899550356333212,ChIJr6yRdDHoST4R6cB2lgIcly0,OPERATIONAL,14.759218805847942
4f383812e4b0d9574ddb7370,Tamimi Markets (أسواق التميمي),26.289045,50.219058,Advertising Agency,9.3,0.9972194737039868,ChIJywvgYzHoST4RNSCDzZ8AieI,OPERATIONAL,55.01467196682522
571f91ae498e7f5cf3eb92cf,Pattis France (باتي فرانس),26.288492,50.219439,Bakery,9.2,0.9928482859683622,ChIJ84WtAO7oST4R3kIwg30Azk0,OPERATIONAL,14.342492739155736
4e69087152b128a09efc234c,SOCRAT (مطعم سقراط),26.283357,50.21406,Burger Joint,8.1,0.9828784709610352,ChIJkUgM9i_oST4RVIRcHPrx-4A,OPERATIONAL,17.86153999715878
56f6cd2f498e48d71f8f6c89,Heny Brosted (بروستد هني),26.287182,50.214178,Fried Chicken Joint,8.1,0.9662579376510816,ChIJXcHhfjroST4RZo5uKgYPJx8,OPERATIONAL,30.719482699408214
5d6a57043b14a00007e25847,P.F. Chang’s (بي أف تشانغز),26.283731,50.219625,Chinese Restaurant,8.9,0.9952280156811664,ChIJx7jBiGfbST4Rdk9-PA6zGCM,OPERATIONAL,14.028587705011724
4ea1474b7ee52a35dc62c77e,مطعم الفرّوج المشوي,26.288672,50.215144,Middle Eastern Restaurant,8.3,0.9812251850552974,ChIJlzLMNDfoST4RVABRsqwiYIw,OPERATIONAL,17.628646402617893
5d45fb97da59890008234a86,Burger Boutique (برجر بوتيك),26.283317,50.220383,Burger Joint,9.0,0.9906940043336132,ChIJnwFOCGDpST4RD7eWecV83lo,OPERATIONAL,19.17729361242778
57c802eb498ee24fbfc37d65,حدائق دمشق,26.289759,50.210906,Restaurant,8.1,0.9862852419183128,,NOT FOUND,225.9665692117938
4be55784d4f7c9b678432520,Jarir Bookstore (مكتبة جرير),26.290704,50.219095,American Restaurant,9.1,0.9979960170839544,ChIJf4F8VTHoST4RVwFNZ8_1XXs,OPERATIONAL,27.132553891772183
5a58cf676cf01a6b3cddebdc,Shajarat Aldurr,26.295223,50.207112,Egyptian Restaurant,9.1,0.9936624040280057,,NOT FOUND,1096.1580575099456
5d6a5785ca176300088d37ea,Texas Roadhouse (تكساس رود هاوس),26.283563,50.220082,Steakhouse,8.7,0.986084843626708,ChIJPV5Bs-XpST4RIEzWMDKZuEA,OPERATIONAL,15.555515574217202
602ea3181b4c3d0637904335,Nozomi (نوزومي),26.281932,50.221997,Japanese Restaurant,9.1,0.9892912162923811,ChIJm9hhLpzpST4Ro9jCw-CuhfM,OPERATIONAL,19.74193605326567
63daa74668fcc45fd6ca11a5,Mama Noura (ماما نوره),26.292126,50.220353,Shawarma Restaurant,9.2,0.9992109317268072,ChIJH4FMap_pST4R_N5lu55Sxx0,OPERATIONAL,21.13342329957515
61a911b857a7ea45c07d8a67,Belgravian (بلجرافيان),26.281752,50.222159,Brasserie,9.0,0.9909319773048936,ChIJ-9acohPpST4Rrhmgp8vJ_3s,OPERATIONAL,7.049938766841038
56549867498eb5b6954f1a0e,Al Ennabi Grill (مشاوي العنابي),26.295292,50.214883,Middle Eastern Restaurant,8.7,0.9653937200185368,ChIJA3jtEUjoST4RWTN9rjOSNoQ,OPERATIONAL,11.109422758928101
4f40dd09e4b0def9940197ec,Cafe De Paris,26.278431,50.218478,Restaurant,8.4,0.9850202277025588,ChIJlVfnginoST4RCuOLCvZ9ZdU,OPERATIONAL,29.93636310253401
618fedb74f66381d0e708107,Maceo (ماسيو),26.282036,50.222206,Italian Restaurant,8.7,0.99362482934833,ChIJOZshG7LpST4RHBLfW4JkKgM,OPERATIONAL,6.758378453567363
4c0a1882a1b32d7f97cb98f0,McDonald's (ماكدونالدز),26.28599,50.220272,Burger Joint,8.3,0.9970316003056074,,NOT FOUND,8581.542391886323
506881b3e4b08b322135905c,Thabbaq (طباق),26.284754,50.213044,Indian Restaurant,7.6,0.9749001139765284,ChIJM8WiWDjoST4RkmquLDX61yY,OPERATIONAL,21.987199660225016
527b6f6711d23e15ec7dcc9e,مطعم راعيها للأسماك,26.295684,50.206873,Seafood Restaurant,8.3,0.9709672975037889,,NOT FOUND,379.3982377016237
4da6bd644df0260c3e986b34,JINGOGAI (جينقوقاي),26.283674,50.208725,Korean Restaurant,7.3,0.97826931025413,ChIJAV1qojzoST4R6TBTKj1Uv6s,OPERATIONAL,35.50028636663144
5db70c5528f17a00087d31b3,Buffalo Wild Wings (بافالو وايلد وينجز),26.283317,50.220383,Wings Joint,8.2,0.9896794879823648,ChIJ5eo3x1XpST4RtJv0kWl7j8c,OPERATIONAL,10.399711631575764
621ec8ed3a800634accb92df,Golden Juice (عصيرات الذهبي),26.296755,50.208906,Shawarma Restaurant,8.3,0.9952029658947158,ChIJr50nEbzpST4RexKmw8zUlqc,OPERATIONAL,12.725755406572324
5a0f2b47e65d0c54653c9e16,مطعم الريف,26.286981,50.213581,Middle Eastern Restaurant,7.6,0.9740734710236596,ChIJyZidejroST4RphUzcadBI3w,OPERATIONAL,20.309266897117524
62dd8733e88f9b25832ce75d,Alawlen Breakfast (فطور الأولين),26.294768,50.217422,Yemeni Restaurant,8.3,0.9765033003093648,ChIJjep9F8_pST4RkVPZhoxNOK4,OPERATIONAL,7.713046479067182
4d3983860edc594130768dec,Jollibee,26.280486,50.214989,Fast Food Restaurant,7.7,0.994727019952155,ChIJ403fMZTpST4RNTpokOfO198,OPERATIONAL,36.97333978204405
5c9cb45d0868a2002c7354b7,Mama Rabab Seafood,26.295261,50.214773,Seafood Restaurant,8.2,0.9768790471061234,ChIJaZ6MkOvpST4R7UyC0ccvqPA,OPERATIONAL,18.047820171505847
621afcb11416cc05b764f828,Mangata Lounge (مانجاتا لاونج),26.28179,50.221125,Mediterranean Restaurant,8.1,0.9738981225185056,ChIJcXIke6TpST4RKt4xm88VD8Y,OPERATIONAL,122.88366491481877
5b3df4f98c812a002c39644a,Chef Culture (شيف كالتشر),26.288199,50.217569,Middle Eastern Restaurant,8.2,0.946694054433186,ChIJy2JTR7_pST4R1FWDy1S8NzQ,OPERATIONAL,20.153802550714392
60449ea0bc35590bd3e88098,BOGA Superfoods (بوقا),26.295774,50.220881,Sandwich Spot,8.8,0.9903558322165305,ChIJpVcu6C_pST4RRdEHvHVdVdU,OPERATIONAL,24.703837880535954
62457a445eca7f11a0ce1e43,Mismar Restaurant (مطعم مسمار),26.296494,50.219564,Middle Eastern Restaurant,8.9,0.9668340827394446,ChIJHSMgbhbpST4RkyfcYks_Fgo,CLOSED_PERMANENTLY,4.089543372395971
5478c5b6498ea3fb990ff091,Broasted Bawanland (بروستد بوان الارض),26.285356,50.216721,Fried Chicken Joint,8.1,0.9491739832917924,ChIJYUuE1DHoST4RN3Cv4AmKvT0,OPERATIONAL,21.910237881964342
4d3abe09beb7b1f73063ec71,Hardee's (هارديز),26.286096,50.218887,Burger Joint,7.7,0.9913327738881026,ChIJPa1m_jHoST4RWPitRHVFwdU,OPERATIONAL,6.262094690299947
5620c917498efb955eb5677e,Puncak Restaurant,26.286626,50.211727,Indonesian Restaurant,8.1,0.961886749915457,ChIJc0PEsjvoST4R0V7mnTqE5xk,OPERATIONAL,14.758211967842165
61a27f1059d52568be3b01da,Saladonia (سالادونيا),26.286365,50.217779,Salad Restaurant,7.4,0.9752883856665122,ChIJAWvaXRHpST4R0lHx6ALOsbM,CLOSED_PERMANENTLY,22.69965352895522
51a0ff90498e1473bb42667c,Sameer Amees (سمير اميس),26.287365,50.21295,Middle Eastern Restaurant,7.5,0.949549730088551,ChIJ5aNJQDroST4RkdcZe1FoqLE,OPERATIONAL,28.800044019586508
4e5ba20ad164da2b277e93b5,مطعم الوزان,26.293157,50.214912,Fried Chicken Joint,7.5,0.9758019062887489,,NOT FOUND,934.0092871370746
4e6fa4c2d4c06eaf9c46c370,Copper Chandni (كوبر شندني),26.284131,50.220346,Indian Restaurant,7.0,0.9836550143410028,ChIJgctiJkXoST4RkMXcuuBAqB8,OPERATIONAL,7.735316772868932
59d535111de76544c1090481,The Garage Burger and Cafe,26.296156,50.218669,Burger Joint,9.1,0.9970360937548404,ChIJR_11IEroST4RIDWXJ87mjH0,CLOSED_TEMPORARILY,123.8048915496034
512f430ee4b0b6aec0d9892a,Classic Restaurant,26.282556,50.212145,Indian Restaurant,6.9,0.966458335942686,ChIJ77m1IiXoST4RoOYXNFva8yY,OPERATIONAL,11.263322260514862
4d1250d5ffa1224ba55898ad,كودو,26.290167,50.219885,Fast Food Restaurant,6.6,0.984281259002267,,NOT FOUND,2837.733810578008
60df8a2658791a0f264e2be1,مطعم مصنع كعكة الجبن,26.282523,50.219389,American Restaurant,No rating,0.9225836349745118,ChIJFyBCjjvpST4RWCkO3p0aJJo,OPERATIONAL,75.40926103660868
63ad579a9451ea3239973936,Arya (اريا),26.296706,50.091905,Armenian Restaurant,7.3,0.989657815191282,ChIJcSKyM_LhST4RQkF8muY1aNU,OPERATIONAL,13.011675640458472
4d4eab4f8af6721e3caf1288,Hobby Farm,26.296712,50.091974,American Restaurant,7.0,0.9911281611234825,ChIJO8rjuUjhST4RWIRKEQUCPqE,OPERATIONAL,67.19094274384237
61ba3c8a7ef09b72a4ffd73c,eat’sy (ايتسي),26.298251,50.107777,Modern European Restaurant,7.4,0.8778925619834711,,NOT FOUND,1484.0980397843807
4eea59f6775b562a3a052ab6,مشوار,26.304459,50.103922,Mediterranean Restaurant,No rating,0.1107438016528925,,NOT FOUND,6182.025024601844
5224942d11d2b15869e81fec,The Sushi Club,26.304546,50.109988,Sushi Restaurant,No rating,0.4239669421487603,,NOT FOUND,389901.9538746408
517cf94ee4b03bbd7e17af63,Core Area Dining,26.305183,50.114253,Diner,No rating,0.8456611570247934,,NOT FOUND,1779.6887711206357
50c5a68be4b0fb7144f4630f,Dhahran Staple Restaurant,26.305537,50.114455,Burger Joint,No rating,0.1066115702479338,,NOT FOUND,1483.0061603883828
4d5268f8d7eaa143fbdd7d0f,Dhahran Golf Club,26.302242,50.120937,American Restaurant,8.8,0.9679752066115702,ChIJnxeUBcDmST4R9bY0ocpND0o,OPERATIONAL,2.986355423065627
549eb806498ed095cd4d241b,باسكن روبنز,26.309062,50.128656,Ice Cream Parlor,8.5,0.8429752066115702,,NOT FOUND,7892.309143009085
60fffdf6e4c4366244617b33,Subway (صب واي),26.305221,50.129076,Deli,8.3,0.9332644628099174,ChIJ7Rzmk03nST4RKI3TRVioBEw,OPERATIONAL,24.328981462236428
4e173cca2271b0e971f0155d,Najjar Café (نجار كافيه),26.3043,50.129791,Lebanese Restaurant,7.5,0.9119834710743802,,NOT FOUND,16096.026914852342
5deccfc5bed40a0007302c62,Greens (جرينز),26.309047,50.128482,Salad Restaurant,7.5,0.8648760330578512,,NOT FOUND,7704.032673915655
5c875078f62e09002ca1e47a,Paul,26.309094,50.129002,French Restaurant,7.5,0.9601239669421489,,NOT FOUND,4008.1451368561857
4bb49541f038a593fe29daf0,Dhahran Dining Hall (قاعة الطعام بالظهران),26.30794,50.128537,Food Court,7.3,0.9929752066115702,ChIJe5kQrJPmST4RNZT2RWrbdDk,OPERATIONAL,60.75391836744855
5cc546871fa763002c0cd344,Chili’s (تشيليز),26.302442,50.121062,American Restaurant,6.7,0.6167355371900827,,NOT FOUND,9955.35460649024
5472f809498e7269b2946dec,Costa (كوستا ارامكو),26.309062,50.128656,Coffee Shop,7.2,0.8533057851239669,,NOT FOUND,427.17950503634626
5da8876da0f6b300086287f7,Açaí Kitchen,26.304207,50.129225,Restaurant,6.9,0.8826446280991735,ChIJsW7XSmDnST4R7ibiCT-ejcY,CLOSED_PERMANENTLY,131.83930018095987
56f24b38cd10a8c1dc17a776,Del Monte Cafe (Del Monte Café),26.309062,50.128656,Salad Restaurant,6.5,0.4090909090909091,,NOT FOUND,7263.983856946404
5b8cf92ee1f228002c0ef68f,Fushi Sushi ((سوشي فوشي)),26.309094,50.129002,Sushi Restaurant,6.1,0.5690082644628099,,NOT FOUND,8086.665223397685
4c69bacac946e21e76f8ea8e,هرفي,26.3048,50.125346,Fast Food Restaurant,No rating,0.5646694214876034,,NOT FOUND,4514.409003140004
53e4af49498e5191d048330e,Gulf Course Aramco,26.30531,50.12728,Restaurant,No rating,0.868595041322314,,NOT FOUND,561.0902916335605
5bfd03a88194fc002c24d7a3,Dhahran Dining Out Side BBQ,26.307845,50.126317,BBQ Joint,No rating,0.3417355371900826,,NOT FOUND,271.2701351176266
5da84347c9a01d000813809b,Under500,26.303054,50.128997,Salad Restaurant,No rating,0.7667355371900827,ChIJ9ethsXHnST4R7XCDb8oDHTk,CLOSED_PERMANENTLY,17.519805080597035
5c2ce22f6dcf04002ca37da2,Popeyes Louisiana Kitchen,26.303776,50.129338,Fried Chicken Joint,No rating,0.6706611570247933,,NOT FOUND,4034.2789131105537
5da88702ad414e0007d4ed70,Acia,26.303285,50.129468,Asian Restaurant,No rating,0.7198347107438017,ChIJsW7XSmDnST4R7ibiCT-ejcY,CLOSED_PERMANENTLY,53.834141376580064
5cb752a6ff0306002c0ea9e0,"Tandoori House , Aramco Camp",26.3043,50.129791,Chinese Restaurant,No rating,0.8479338842975207,ChIJE1ZRGu3mST4RSuCp8_KaBGw,OPERATIONAL,41.61272568022857
5fd87705cecb1e01d6027089,Habak (حبق),26.304193,50.130233,Lebanese Restaurant,No rating,0.5237603305785123,,NOT FOUND,8929.375735941472
da2cd3c1ff2842c125d12805,PAUL Bakery & Restaurant,26.308125,50.128725,French Restaurant,No rating,0.38099173553719,,NOT FOUND,4229.081562635621
54c9f77b498eca053002501c,Jaafari University of Homosexuality (Tandoori Brothel),26.304408,50.130295,Kosher Restaurant,No rating,0.3921487603305785,,NOT FOUND,
5c87b1219e0d54002cbdbdef,Operation Falafel,26.308572,50.129494,Falafel Restaurant,No rating,0.9394628099173554,ChIJW-T_Qv_nST4RuvPtvi5E3Rw,OPERATIONAL,20.558835882382677
5c87780a1f7440002c32f8c4,Operation: Falafel,26.309202,50.129505,Falafel Restaurant,No rating,0.881198347107438,ChIJW-T_Qv_nST4RuvPtvi5E3Rw,OPERATIONAL,51.780932313619026
51778177e4b0438b3f66db62,Nesma Catering,26.304917,50.13152,Diner,No rating,0.0231404958677685,,NOT FOUND,6295.370329102326
5e37e359922ecd0007ad85a6,Leen Cusine,26.314553,50.120709,BBQ Joint,No rating,0.8793388429752066,,NOT FOUND,4509.462132975724
50e901c5e4b0a5a073c3c105,كرسبي كريم,26.312258,50.12805,Office,No rating,0.9607438016528924,,NOT FOUND,2355.928588171745
63a0452ba316af39e4d39d81,Freshhouse (فريش هاوس),26.31157,50.136342,Vegan and Vegetarian Restaurant,8.3,0.987396694214876,ChIJA4oOSOvnST4RDfZCfvA96RE,OPERATIONAL,11.232989532363511
58da14559dc8d03da1d766d6,Pin,26.31102,50.132454,Burger Joint,8.2,0.8876033057851239,,NOT FOUND,8522.699469274547
54798e34498eb17c04fbd5ca,Costa Cafe (كوستا كوفي),26.309297,50.131489,Coffee Shop,6.5,0.9134297520661157,,NOT FOUND,5397.678894407387
54dc4dc4498eb547d60d615f,Texas Roadhouse,26.305356,50.148714,American Restaurant,6.6,0.7252078307951922,,NOT FOUND,7509.648182727314
5ffff654597e5603470acee0,Greens (جرينز),26.311985,50.130132,Salad Restaurant,6.4,0.9820247933884296,,NOT FOUND,7603.936161522079
5f173487438802647928785b,I Wish Burger At Aramco,26.302252,50.137775,Burger Joint,No rating,0.7836776859504132,,NOT FOUND,887.4378611782845
53c2a8fe498edb916873aa7e,فطوري البروحي,26.3025,50.139128,American Restaurant,No rating,0.4675619834710743,,NOT FOUND,
53dd4067498e62f1e99f6cf8,سري دي موفي,26.3025,50.139128,American Restaurant,No rating,0.8849173553719009,,NOT FOUND,972.135169649172
0158da12adf84e007a9a83ef,Gulf Chef Restaurant,26.305761,50.141342,Restaurant,No rating,0.7208677685950413,,NOT FOUND,4655.1288899418
5c8a8d1a12c8f0002cca54eb,مطابخ الدانة,26.309107,50.138689,Buffet,No rating,0.0539256198347107,,NOT FOUND,2631.248886021146
56de60e0498ed8503680a3bf,Staff Lounge,26.311592,50.13508,Comfort Food Restaurant,No rating,0.5789256198347107,,NOT FOUND,1093.0975245425138
4f4ca32ae4b05dbcea5c3f32,KFUPM Student Restaurant,26.310345,50.144744,Middle Eastern Restaurant,5.6,0.9919421487603306,ChIJozFd2l_mST4ReTx64ZY08CY,OPERATIONAL,21.5365717225484
4d18bba8302da1cd9ce6c493,Students Restaurant,26.31036,50.144208,Restaurant,5.6,0.94400826446281,ChIJozFd2l_mST4ReTx64ZY08CY,OPERATIONAL,42.23015995524446
617a6f581d797c71781f7ee8,N,26.312107,50.139518,Noodle Restaurant,No rating,0.5142561983471075,,NOT FOUND,7831.600475724385
4d8080171013236ae10b8935,The Fourm (Ramada),26.312369,50.141611,Diner,No rating,0.437396694214876,,NOT FOUND,3705.200545537148
4d3d435aaf8ca143e4b109f7,Engineering Snack Bar,26.311939,50.130321,Restaurant,No rating,0.5183884297520661,,NOT FOUND,48499.95576449375
52d25247498e7f75d2303bb6,Expec Basement,26.312155,50.130102,Diner,No rating,0.8663223140495868,,NOT FOUND,206.86099584030134
5c3102d6cf72a0002c64dcbe,Lab Four,26.300069,50.148451,Restaurant,No rating,0.9216942148760332,,NOT FOUND,12018302.833493592
51035b96e4b00c778ead1740,إستراحة خفايف تايم,26.313061,50.141843,Construction,No rating,0.4409090909090909,,NOT FOUND,13195.666211404754
51ab0b12498ec0f9f996a769,Samso cafteria,26.313061,50.141843,Restaurant,No rating,0.8911157024793388,,NOT FOUND,4445580.354875617
0b58c5280f19489323e0f0f0,La Casa Pasta,26.30477,50.14908,Restaurant,No rating,0.5986458646071662,,NOT FOUND,2017.506166744362
4f51e74de4b0b589376d778b,هارديز,26.302146,50.149854,Burger Joint,No rating,0.4837928214259832,,NOT FOUND,2087.0152616577884
511609dfe4b0590ac8e5152b,هارديز,26.304178,50.169181,Burger Joint,7.3,0.9477837201437858,ChIJJYNLejHmST4R-Z_nvzY3CJ0,OPERATIONAL,149.05646705279472
50896984e4b00b147d7a983c,تشيليز,26.304797,50.16788,Mexican Restaurant,7.2,0.8700291830012149,,NOT FOUND,5431.609477257756
4de7c63b2271b9ccf4e5463a,تشيليز,26.305811,50.168204,Mexican Restaurant,6.8,0.3087761926829573,,NOT FOUND,5435.182409995535
59c8b9f5be70784687e8d7f4,كوستا كوفي,26.303553,50.168738,Coffee Shop,6.9,0.9571523402762993,,NOT FOUND,1955.9141223168892
58511bd13cccc66e289ce5e1,ماضينا,26.30178,50.164184,Arepa Restaurant,No rating,0.5996668378402075,,NOT FOUND,2851.765742068711
4f4fcdcde4b0f03ee7645466,Grill,26.298462,50.164348,Asian Restaurant,No rating,0.9047607119149308,,NOT FOUND,2738.444582887538
4f914ed7e4b0935b8233340b,Pancake House,26.303137,50.167371,Restaurant,No rating,0.1613957741010258,,NOT FOUND,766.5220770045232
58050294d67c0bfe7761b91d,شاورما قايز,26.313454,50.148061,Middle Eastern Restaurant,No rating,0.1607466379551313,ChIJxXIQ1mbmST4RyVDvR1R7ZB4,OPERATIONAL,69.13045712393986
52235429498ec6d1f8d5169a,باسكن روبنز,26.313961,50.147869,Ice Cream Parlor,No rating,0.1200708125847628,,NOT FOUND,8715.015055274584
57e25dbd498ef4c3cefb17d4,SupWay In Kfupm Mall,26.314099,50.147773,Restaurant,No rating,0.7945503297340387,ChIJZ7Ma2WbmST4RCsoVvSCG-gg,CLOSED_PERMANENTLY,38.53036065454763
523035bb11d2435ba408cfba,Fatoosh KFUPM Mall,26.314099,50.147773,Middle Eastern Restaurant,No rating,0.5193751099976188,ChIJG_oD12bmST4RedvALPeS1KU,OPERATIONAL,16.32364971051813
5405c3a9498eeb9671ec9ea1,"charcoal, KFUPM mall",26.314083,50.147836,Hot Dog Joint,No rating,0.5155446046814987,ChIJG_oD12bmST4RedvALPeS1KU,OPERATIONAL,20.922156908040506
4e3da724ae6045423668a926,تشيليز,26.305181,50.168428,American Restaurant,No rating,0.864280257010809,,NOT FOUND,5392.215777558831
56d696bd498eaccec997bf1e,Rewaf Restaurant (مطعم الرواف),26.314053,50.147726,Middle Eastern Restaurant,No rating,0.5829718509622851,,NOT FOUND,4129.555761873374
5c568538829b0c002c67cec1,الرواق الشعبي,26.314114,50.14771,Middle Eastern Restaurant,No rating,0.0584410878635097,,NOT FOUND,4134.984052902143
5831b9cedc33297bf05d26f3,Jasmi's,26.314083,50.1476,Fast Food Restaurant,No rating,0.8740591968362097,,NOT FOUND,31302.39053971628
4cbc1acc90c9a143f8eb98d6,Burger Joint - Mall Of Dhahran (برجر جوينت),26.298559,50.168456,Burger Joint,No rating,0.8987612880600193,,NOT FOUND,717.530695137265
4d1866dce190721e1da22121,Burger Joint,26.303677,50.169178,Burger Joint,No rating,0.6279355218496763,,NOT FOUND,831.1716101964967
618b98c05ca83077f640dbea,Low Calories (لو كالوريز),26.300978,50.171579,Restaurant,8.9,0.997895817938152,ChIJVwdFLZDnST4ROJIP-8EMHpw,OPERATIONAL,6.502606595622525
58787ec676f2ca582724ceb3,Lubda Palace (قصر لبدة),26.304052,50.174748,Middle Eastern Restaurant,9.2,0.9941759246502424,ChIJk7lKri3mST4RGksvX_mNtx0,OPERATIONAL,37.42085614114956
6399db949256f32d49d472ca,BLU Sea Bites (بلو سي بايتس),26.303767,50.174202,Seafood Restaurant,8.8,0.9797472476547138,ChIJR4TlCHvnST4RXOHFLMOIWkI,OPERATIONAL,3.2649857234730852
63a3671e8b0f5f0e40c12687,مشويات الرافدين,26.299098,50.175283,Kebab Restaurant,9.0,0.9942635989028192,ChIJYepTt5PnST4Rs4ufwf6SR1I,OPERATIONAL,31.71520672183827
61cb249d5c9f6c57e4040ca2,Ray’s Pizza (ريز),26.302541,50.176953,Pizzeria,8.8,0.9876379303866436,ChIJSde0azznST4Rvs4yst4lM1Q,OPERATIONAL,24.12347587946073
614e08c358bb2536d5771f15,Kokoro (كوكورو),26.305123,50.178356,Japanese Curry Restaurant,9.2,0.9961548577798376,ChIJH8FEVsTnST4RDL-dwKrvK6I,OPERATIONAL,6.916205569759022
5a6d81b497cf5a7b3862969c,Burger Site (برجر سايت),26.299244,50.175834,Burger Joint,8.7,0.9898423115942936,ChIJ95dvA9PnST4ROYCKP3oiktU,OPERATIONAL,12.918224775130735
62c49215c5d050636806ff0d,Stakt (ستاكت),26.300008,50.174213,Burger Joint,8.3,0.9915081223932566,ChIJA2dOPYrnST4RBMCNTiBPA2A,OPERATIONAL,9.0383526975185
5dad6a1951d9b400085c74b9,Fit House (فت هاوس),26.299473,50.174416,Health Food Store,8.2,0.9937500782805828,ChIJf0aRgVTnST4RxyhqkiOjhqI,OPERATIONAL,5.395219545885383
5b09151e005ac1002ceb5e11,Aloft Hotel Restaurant,26.304773,50.174145,Restaurant,8.1,0.9860472689470322,ChIJ0-tBwi3mST4R38E9UqFyICo,OPERATIONAL,26.639408970484734
580b18ebd67c5d194da7644c,SALT (سولت),26.307406,50.178473,Burger Joint,9.0,0.9311005623677058,,NOT FOUND,5635.5666917541075
5b6f008dd69ed0002c0331ab,REGAL BURGER (ريجل برجر),26.302366,50.178143,Burger Joint,8.5,0.9818764795030124,ChIJ-YsbfBznST4RugJGINjU2rw,OPERATIONAL,12.073917036201413
5da43e009850d80007bc6cf3,Zad Alsultan Resturant (مائدة زاد السلطان),26.298166,50.179838,Middle Eastern Restaurant,9.1,0.9965431294698212,,NOT FOUND,12883.665770534939
54e07a51498eccd401c4ba7e,IKEA Restaurant & Cafe,26.30956,50.167927,Scandinavian Restaurant,8.9,0.9984343883468394,ChIJ0w4nVyfnST4RzKgVBkQy608,OPERATIONAL,20.065897264697718
60c5fc982506237cecafa44d,The Peak (ذا بيك),26.307662,50.180539,Burger Joint,9.0,0.9968186771207777,ChIJ_9iUW9DnST4R9UM2tmXw238,OPERATIONAL,14.26326659090874
5713d40f498eea629c0ee8b3,10° Sweets & Bakery,26.299278,50.178305,Bakery,8.5,0.9803860172092032,,NOT FOUND,4859.929669284005
5f3bf2474e3667566477c46e,Chick N Dip,26.30394,50.170939,Fried Chicken Joint,7.8,0.9673476033616814,ChIJ9SQUClzvST4RxIppws1OmiA,OPERATIONAL,77.59508066680564
645bb94a96adb8577841b66a,Volo Burger,26.298034,50.178146,Burger Joint,8.5,0.9736225748675492,ChIJu6e9UXXnST4RfzsLNrZ1k7k,OPERATIONAL,16.977261990545188
5358d5e5498e5ab97a47bfab,تشيليز (ردهة مطاعم مجمع الظهران),26.304122,50.169474,American Restaurant,7.9,0.9963677809646672,,NOT FOUND,333.2978563480424
54080744498e6df8ee63279f,Azal - at Dahran Mall,26.304307,50.169898,Middle Eastern Restaurant,7.9,0.9917711451509876,ChIJJaK8xTDmST4Rr3xsQsGvTKQ,OPERATIONAL,38.73669299733625
610997c37022351b374f96b8,Section-B (سِكشن-بي),26.306608,50.182674,Burger Joint,9.1,0.9914955975000314,ChIJEa8kbKXpST4R7-OGQ-fhtTI,OPERATIONAL,68.09157598706076
60d3cf1d158b3f247b4a5049,Hamburgini (همبرغيني),26.299777,50.174575,Burger Joint,7.9,0.9641412306960084,ChIJGaUb2OnnST4RWW1TleO7bek,OPERATIONAL,16.325256808759107
6299dc583fac197a2d64cfac,Fish Face (فش فيس),26.307581,50.180853,Poke Restaurant,8.8,0.9340689620620984,ChIJdd-ZdXDnST4R5BWVMhSKN1A,OPERATIONAL,20.857440764104528
5b8acd3ba795bd00370adf7c,كبدة وشاورما,26.298221,50.180767,Sandwich Spot,8.7,0.9641662804824588,,NOT FOUND,723.4363609660859
6307bad272ad7b7920a9e2d8,SMOG (سموج),26.304438,50.178447,Burger Joint,8.1,0.9687629162961384,,NOT FOUND,6217.10351844116
623605b650b2ed4a70ab95cc,IL FIGO (إليفقو),26.306458,50.183677,Italian Restaurant,9.1,0.9890908180007766,ChIJE2SRr6rnST4RTq35n1Gv9VE,OPERATIONAL,63.86400474651796
5ac472e8029a5521b50cf3b0,Oak Smokehouse (اوك سموك هاوس),26.307577,50.180612,BBQ Joint,8.5,0.9621622975664132,ChIJ1diTKirmST4R-cnzD3QiSLE,CLOSED_PERMANENTLY,15.003166806282358
4d9b42069298b1f784725338,تشيليز,26.304122,50.169474,Fried Chicken Joint,7.7,0.974662141005248,,NOT FOUND,5257.495394251598
5c458603b5cb76002c982fa0,C House Milano (سي هاوس ميلانو),26.307674,50.171198,Italian Restaurant,7.9,0.3494445209854586,ChIJs3N20ybnST4RZ4rhK4oymHo,CLOSED_PERMANENTLY,19.624921103686823
6182cbbf9d51dd1f2ecf3241,El Tacoria (ال تاكوريا),26.300482,50.183302,Mexican Restaurant,8.3,0.9837426885935796,ChIJnVSQHaXpST4RJ-aNhMQu6Sk,OPERATIONAL,11.086053053371616
5e18ce5eda3d2900088f3b96,Narang,26.299051,50.18114,Middle Eastern Restaurant,8.0,0.9626507684021992,,NOT FOUND,2386281.395067796
636ab52256622e385a03141d,LMK (إل ام كاي),26.307506,50.180527,Burger Joint,8.0,0.993549679988978,ChIJo362p6TnST4RbNmoKKVhCYg,OPERATIONAL,31.872615103214667
6043de3bdbc7f6682a640c39,Hatabgy (حطبجي),26.298596,50.176641,Shawarma Restaurant,7.6,0.9859971693741312,ChIJb0Z8QJDnST4R203HbyM9fNY,OPERATIONAL,10.858475215321466
62211305578b3f22d1563613,Bosnian Cevapi - Bosnian Kebab House,26.299429,50.174187,Bosnian Restaurant,7.4,0.3465387457571924,ChIJu65yMsnnST4RkIegB9jFqWk,OPERATIONAL,0.6549220144410721
4bf943aec07c9c7449ffbbef,Krispy Kreme (كرسبي كريم),26.309626,50.171926,Café,7.6,0.9783820342931576,,NOT FOUND,375.4776349436245
4d75f916c3efa09036634739,Applebee's Neighborhood Grill & Restaurant,26.310037,50.16857,Home Improvement Service,7.5,0.9831540186119914,,NOT FOUND,37629.16905578552
5be97374ecb3ed00323d59c0,Fatté w Snobar (فتّة و صنوبر),26.304688,50.18019,Middle Eastern Restaurant,7.4,0.9665334853020378,ChIJcc6VkPvnST4RG-LrpYt8tWM,OPERATIONAL,21.60770758683509
4ebd69da0aaf88633bc4912c,Casa Pasta (كازاباستا),26.305998,50.170044,Italian Restaurant,8.2,0.962500469683496,,NOT FOUND,15605.898538094296
5c6840d6237dee002ca1e754,Scale (سكيل),26.299205,50.181453,Health Food Store,7.4,0.9746120414323468,ChIJ2d2Vx-PnST4RcFXz_kpgM0E,CLOSED_PERMANENTLY,30.58030689551004
53d1a5bd498ecffea0fb78e9,Bamboo Kitchen,26.307595,50.169625,Asian Restaurant,7.1,0.860547838829674,,NOT FOUND,200.73511706624765
54a50dcb498ebcd88aa56917,MADO (مادو),26.307195,50.169375,Bakery,7.0,0.0943500206660738,ChIJh-m67DHmST4R624taxfjrmE,CLOSED_PERMANENTLY,194.97553182691146
57f280f2498e15fd3bd8086a,The Cuts (ذي كاتس),26.305548,50.194192,New American Restaurant,8.7,0.9916458962187348,ChIJPfr7zmLoST4RvGcJxr6Otqs,OPERATIONAL,20.584433284750535
591ef7ed59fe5c040141ef47,Rolls Rice (رولز رايس),26.305563,50.193893,Sushi Restaurant,8.3,0.9628386418005788,ChIJmSYeZaXpST4RF2CeoVuutiw,OPERATIONAL,9.385010110878849
5a05811e58aa7f3b3d5fa67c,Bath & Body Works,26.3046,50.198809,Donut Shop,9.0,0.9698651068999636,ChIJF15pkqDpST4Rwp0eHucz7FE,OPERATIONAL,12.742353139366813
4c43599e429a0f47283c471e,McDonald's (ماكدونالدز),26.305166,50.19624,Burger Joint,8.4,0.9989103342894002,,NOT FOUND,5396.153265620316
4f447c3ae4b025d84350ec50,Savor Bakery (سيڤر بيكري),26.304341,50.200353,Bakery,9.3,0.9863228165979884,ChIJu1gfzWboST4R9IIlkIpO5BQ,OPERATIONAL,15.4490938192227
59d13ba65161135b1533e05e,Golden Juice (عصيرات الذهبي),26.299162,50.198465,Shawarma Restaurant,8.8,0.9956288122643756,ChIJkyu5_GXoST4RrY4E8QhgG0o,OPERATIONAL,16.850967926400003
5b967ca9b6b04b002c24feed,&SALAD (اند سالد),26.303113,50.201383,Salad Restaurant,9.4,0.9971067496649592,ChIJ-_DAGWPoST4RRRk2jIuk0ZU,OPERATIONAL,33.0571700375981
5e17859e1cce80000839630d,مندي الأحساء,26.299976,50.198429,Middle Eastern Restaurant,8.6,0.9920341679087186,ChIJFSDC_5DpST4RT0lG5ffXoGk,OPERATIONAL,3.9116034520596985
63fa4517e7e81b0b49773d66,TÁKE (تيك),26.300647,50.197996,Burger Joint,8.3,0.9721070627872898,ChIJndfCd3DpST4RPatTKy0PfJ8,OPERATIONAL,20.36330396672802
57ee6118498e17ca7f076a46,Parker's (باركرز),26.305058,50.195738,American Restaurant,9.1,0.9970942247717338,,NOT FOUND,1742.8714101874805
6048ac05fd3c1f1aa33a8e33,Pep & Co. (پيپ اند كو),26.30355,50.205065,Salad Restaurant,9.1,0.9806114652872584,ChIJjYy5J9_pST4RYLyWdtC24Zk,OPERATIONAL,13.383805594509438
58406f9c561ded1024e01b25,Zümrüt (زمرُت),26.300473,50.189267,Turkish Restaurant,7.5,0.9786450570508888,ChIJ5-ZDCHzoST4R4ROoNX-lRAE,OPERATIONAL,30.462685725082178
5bd99371911fc4002cbb5201,Shrimpail (شرمبيل),26.30376,50.203928,Seafood Restaurant,8.7,0.9772046943299808,ChIJ9xFFtVDpST4RdB3VD1uiBeo,OPERATIONAL,8.29468027354483
62a365a7ab228369f7cbef4e,شاورما سنع,26.298993,50.198599,Shawarma Restaurant,8.0,0.987136934657632,ChIJ1WDABhLpST4RasoFDEe2lAY,OPERATIONAL,11.68128651896826
5a787e2d6fd6262596a30d79,Mizo Eatery (ميزو),26.303745,50.203755,Italian Restaurant,8.4,0.9682243458874512,ChIJc3bViV3oST4RqVwGwysz_RY,CLOSED_PERMANENTLY,9.48404835706799
4d25fb0af9406dcb98d1908d,Tamimi Market,26.309386,50.191414,Restaurant,7.8,0.9741736701694618,,NOT FOUND,1785.9034778018727
4ebc3fd4e5faed97be82c70b,Shawarmer (شاورمر),26.304338,50.197992,Shawarma Restaurant,7.6,0.9618742250222316,ChIJP1R77mPoST4R93X7pWyxRcU,OPERATIONAL,5.449022850587674
592dc10bd41bb74f6e42af1e,Five Guys (فايف جايز),26.303868,50.204195,Burger Joint,8.1,0.992923435327714,ChIJxRYKqvDDST4RZDNaQQ977zc,OPERATIONAL,18.639841586923446
5fa93dd680df8d02ae9348fa,Ghosn Alromman (غصن الرمان المشوي),26.295171,50.201401,Kebab Restaurant,7.7,0.9748875890833032,,NOT FOUND,521379.2809976258
4bd737e435aad13ac6698ef3,Soul Kitchen (سول كيتشن),26.302828,50.208717,Sushi Restaurant,8.4,0.9897045377688156,ChIJo2QYnW3pST4RM6Il6S9c6Kk,OPERATIONAL,12.737145281966654
508e8cd8e4b066b5890783f3,Madeleine (مادلين),26.306362,50.210033,Bakery,9.1,0.9789581793815209,ChIJ2cgK61voST4RbJVtA-tA7oM,OPERATIONAL,30.554113429495235
5228da8c11d28f5c52487299,Oriental Flavors (نكهات الشرق),26.302124,50.211145,Indian Restaurant,8.4,0.9944765220876493,ChIJl1x830ToST4RbQvHvVn0r0o,OPERATIONAL,8.664992916652313
62b61dccbc87e166783de850,Utti (اتي),26.300245,50.208539,Burger Joint,8.3,0.9779436630302728,ChIJee9T-9zpST4R7JZoVg5nC8U,OPERATIONAL,12.145863387296288
4df4c7aec65bf55ee53034a2,Manoosha Al Reef (منؤشة الريف),26.301421,50.21546,Bakery,8.7,0.979709672975038,ChIJ76lAFE_oST4RIX73CrTOy5g,OPERATIONAL,9.604792416147006
646d2be4c16c43320faed675,Il Grotta,26.299861,50.214927,Italian Restaurant,8.5,0.9939630014654124,ChIJy662OQDpST4R-9rll4PJCSs,OPERATIONAL,10.085675454856597
4c6eff23df6b8cfa6bdbb34d,Al Fawar (الفوار),26.297828,50.216756,Seafood Restaurant,8.8,0.993762603173808,ChIJd4G3AknoST4R6Zovk5nBqoo,OPERATIONAL,19.451310426293336
59ad9d1c86bc494d39e9519d,Specialty Bean Cafe (محمصة سبيشلتي بين),26.300319,50.219761,Coffee Shop,9.3,0.9930236344735162,ChIJ4V2hMEboST4RQjHFZjxUTtY,OPERATIONAL,30.117024998533108
5bf51b2b8a6f17002c4b8fb7,The Pantry (ذا بانتري),26.308839,50.214754,Modern European Restaurant,8.6,0.984055810924212,ChIJA23adiTpST4RmJr5WiB9i38,OPERATIONAL,25.217743787730043
4bcef7dcc564ef3bdcffeef0,Maxim Restaurant (مطعم مكسيم),26.302751,50.20856,Sandwich Spot,7.5,0.9844315577209704,ChIJcXa2pFzoST4RKkSoqoQgqTI,OPERATIONAL,35.94049062538778
525c207f498e33236b6c6ae5,Belad Al-Sham (مشویات بلاد الشام),26.297121,50.216115,Middle Eastern Restaurant,8.7,0.9955536629050238,ChIJMcyDWEjoST4RCjb-B1UdehA,OPERATIONAL,28.83482324889512
61df1957f588bc30dc8ce0fd,Freshhouse (فريش هاوس),26.309071,50.219055,Salad Restaurant,9.5,0.9991107325810048,ChIJdxq-VEvpST4R14ZntQQe7GE,OPERATIONAL,24.08879717574306
61fc033797335e31c4a4bb31,OffTheEarth (أوف ذا إيرث),26.31171,50.217244,Salad Restaurant,9.5,0.9995240540574392,ChIJbykzz7vpST4Ruzil9vYw5PI,OPERATIONAL,27.183052018605988
5a4009b2da2e0062768f9e4a,Bawabt Dimashk (بوابة دمشق),26.297043,50.21525,Middle Eastern Restaurant,8.4,0.980198143810824,ChIJiwPyi0joST4RL9od75xVU9A,OPERATIONAL,3.1037987210480553
4fe2e914e4b01e4929d26295,Rolando's Pizzeria (رولاندو بيزيريا),26.296648,50.219012,Pizzeria,9.1,0.9927355619293344,ChIJ578s9knoST4RBXkYx941MeU,OPERATIONAL,24.420467423319124
62a392f46c162743a878093e,Ayyash (عيّاش),26.296543,50.218698,Shawarma Restaurant,8.8,0.9957540611966283,ChIJR0Ha6UrpST4RxKc3ZJswxK8,OPERATIONAL,8.051605215382729
6228e6cbac70ac1f18e044ae,Neon Sushi (نيون سوشي),26.309064,50.213558,Sushi Restaurant,8.1,0.989416465224634,ChIJbwh46PrpST4RAng_1hBLTE4,OPERATIONAL,64.8990684538862
5a1dd4cfda70801829904fba,Century Cuisine (سينشري كوزين),26.296909,50.219593,Restaurant,8.7,0.9862351423454117,ChIJwX7uGEroST4Rwhl3gTy42zg,OPERATIONAL,10.078110564484716
557ddb99498ec5a5b12bc682,Al Kabsh (مطعم الكبش),26.296755,50.218571,Indian Restaurant,8.0,0.9916083215390588,ChIJf_9G7UnoST4RAZ2mNl0IcA4,OPERATIONAL,22.14347977414342
53d2e73c498e891029547b58,McDonald's (ماكدونالدز),26.294072,50.207591,Fast Food Restaurant,7.7,0.9955912375846996,,NOT FOUND,7030.9264348599145
605b89ee4807076cc7b28925,PICKUP (بيك أب),26.307279,50.224057,Burger Joint,9.6,0.9990731579013288,ChIJlWnWTkXpST4RTpO2UXYfwVw,OPERATIONAL,68.59212764731286
62112b02e2bc2809c86a7d68,FATTO (فاتّو),26.307217,50.225003,Italian Restaurant,9.1,0.98770055485277,ChIJ016pBU7pST4R6i1ykWhTZ4M,OPERATIONAL,8.282039454911311
613b1c1e4e1b0b7f20836a71,Burger Site (برجر سايت),26.307529,50.223893,Burger Joint,9.4,0.992622837890307,ChIJSb2qquDpST4RiV4Ipc-GC0c,OPERATIONAL,26.84518301091108
56d21fb8cd10b9cf5fd5cf08,Firegrill (فاير جريل),26.298832,50.223278,Mexican Restaurant,8.9,0.9887275960972433,ChIJ8xDs50roST4RE_1b80OQ5gs,OPERATIONAL,45.25582826043481
61c8baf7bc7e50538ec05392,Lumee (لومي),26.307495,50.224654,Middle Eastern Restaurant,9.0,0.9888778948159468,ChIJ8z1pV3rpST4Rt6-5YWtWmDQ,OPERATIONAL,59.28701802840982
5d5fee7bc5e2cf0008166480,Mugalat Al Freej (مقلط الفريج),26.305793,50.22753,Middle Eastern Restaurant,8.4,0.9916333713255094,ChIJzxjGsrbpST4R5mEmy4hGpLQ,CLOSED_TEMPORARILY,24.92686399350177
613b1cbacdc38d4c6ed61e6b,Addict (أدكت),26.307566,50.223901,Steakhouse,8.8,0.9880637767563032,ChIJrbrJTy3pST4R6636pBRiabQ,OPERATIONAL,34.365349690753504
5f16b6f2938b7c3b5e28dca4,Tosto (توستو),26.30745,50.224736,Sandwich Spot,8.5,0.9674478025074836,ChIJ2aZr0XjpST4RAgfogdLwnuk,OPERATIONAL,14.12514028192273
52863cc5498efbed7a739db3,مطعم بياتو,26.298602,50.223751,Restaurant,8.4,0.8902318357736,ChIJIzYz6UroST4RjlWLYwBtbA0,OPERATIONAL,95.39820433929378
623cc368d068fc78ba652c08,Arya (اريا),26.300121,50.220319,American Restaurant,8.5,0.984757204944828,,NOT FOUND,12839.869257421871
63b976024ace10559687a396,Steak House (ستيك هاوس),26.298911,50.222909,Steakhouse,8.2,0.980160569131148,ChIJ9aXrr1zoST4R0WK5-3gF7rU,OPERATIONAL,45.67071857161873
5dfcb079e60b0b00083d33f9,SHRIMP RUSH (شرمب رش),26.309568,50.222647,Seafood Restaurant,8.8,0.9872621835898848,ChIJ9dYUyV_pST4RwCHzna2fTOM,OPERATIONAL,19.06833558449814
5e6fd16a148e6200077f93c6,Raising Cane's,26.305268,50.223538,Fried Chicken Joint,8.1,0.9787327313034656,,NOT FOUND,4138.446328427617
59460433b6b04b6c8b5f0827,GO-YA! (غويا),26.310797,50.223505,Burger Joint,8.9,0.9919089189764656,ChIJ5Z_fRlPoST4RjeR94x6M5GQ,OPERATIONAL,35.350859567430525
4f3f7a93e4b0bc95af325f2d,Fusion,26.301337,50.224096,Seafood Restaurant,7.8,0.9415463233175936,ChIJg098REvoST4RMWWk9G4j6NM,OPERATIONAL,37.758096330606605
62092441b5711c45ff021d8b,Vasto,26.305015,50.222701,Pizzeria,8.0,0.9643666787740636,,NOT FOUND,3675854.9800902815
61bb0dcf731a841f1eb62cff,Soul Bowl (سول بول),26.310087,50.223501,Salad Restaurant,8.6,0.9862476672386368,ChIJg8WkjlnpST4R2KUQ7-FqU1g,OPERATIONAL,19.021852474800802
5a16bb993c858d332caa9075,COSMO (كوزمو),26.310797,50.223505,Coffee Shop,8.7,0.9949649929234352,ChIJ0bRjQFPoST4RU7SC23WAXyg,OPERATIONAL,9.620206472233772
636d620cd1c1490bccceaae7,Ib Burger (آيبي برجر),26.310115,50.224215,Burger Joint,8.5,0.9969063513733546,ChIJb5wDKnnpST4R4YcUKfsCBM8,OPERATIONAL,11.369098914663917
503b8b3fe4b0c7c1fbe17b6d,Piatto Restaurant (بياتو),26.298724,50.222775,Italian Restaurant,8.1,0.9822772760862214,ChIJIzYz6UroST4RjlWLYwBtbA0,OPERATIONAL,23.095934242769882
5194833d498e8ed406129319,Le Cafe De Paris Le Meridien Alkhobar,26.301644,50.224016,Café,7.7,0.9462932578499768,ChIJUa04UEvoST4RrRbQaad1OlI,OPERATIONAL,27.951676212758834
63a49c5a6e2e572a9034d882,ZÖÖBa (زووبا),26.299631,50.223694,Egyptian Restaurant,7.8,0.97672874838742,,NOT FOUND,8446.5932549792
58ece42980e1af6f936e56a2,Lascala Urban Eatery,26.309383,50.221987,Restaurant,8.3,0.9956413371576008,ChIJqS5wqVPoST4RA6-IvgIMbHg,OPERATIONAL,3.8809343389374376
58d2adaf24ca6a4eb3257b54,The Garage Burger & Coffee,26.297017,50.219388,Burger Joint,8.4,0.9600330657181148,ChIJR_11IEroST4RIDWXJ87mjH0,CLOSED_TEMPORARILY,5.776460877472497
62db050d9673507063b36399,Sofret Fayzah (سفرة فايزة),26.307707,50.224759,Lebanese Restaurant,7.9,0.9710424468631405,,NOT FOUND,16283.29916706467
61780c83671da1089c54834c,KŌYŌ (كويو),26.307243,50.22478,Molecular Gastronomy Restaurant,7.8,0.9669092320987964,ChIJzylIc_PpST4Rz0Rzc5EM4kM,CLOSED_PERMANENTLY,4.425696388686946
5f81af7d0349b662d3428cb1,Raftaar (رافتار),26.31347,50.223866,Indian Restaurant,8.4,0.9689758394809684,ChIJN-mzWD_pST4R-tKGyEfXvuA,OPERATIONAL,37.49942400766153
5aff352c5f68b90039bdcf06,AlGosaibi Tent (خيمة القصيبي),26.30634,50.220307,Middle Eastern Restaurant,7.8,0.9680114227026214,ChIJZ9V_8VrpST4REWjBD9VipUA,OPERATIONAL,11.434661734839333
641274674ec46a0fb9d701ee,نكهة الأولين,26.299712,50.214904,Middle Eastern Restaurant,8.1,0.9719066644956852,ChIJiVmXiFTpST4ROoimB-dBrwI,OPERATIONAL,2.297768964564838
5c91480347f876002c8361a2,AlEnabi Grill,26.312614,50.229283,BBQ Joint,8.1,0.9453664157513058,,NOT FOUND,2405.9258829406695
4db5b31ff7b121c29f640a0b,Oasis Restaurant - KFMMC,26.321652,50.015791,Restaurant,No rating,0.2055735997305706,,NOT FOUND,596.6069305753274
58e219dd3f5a5c690780be97,Smoking Area,26.332946,50.085116,Fast Food Restaurant,No rating,0.6474005888052773,,NOT FOUND,3637.291441771001
4f2fa131e4b040ea0176accf,Al-Midra Dining Hall,26.328832,50.109262,Bar,7.7,0.9996703659749672,ChIJF0etjw_kST4R_5InePIK-r4,OPERATIONAL,20.13973315083295
510e2155e4b039abc8e208e7,مطعم كان,26.320732,50.110392,Middle Eastern Restaurant,No rating,0.312396694214876,,NOT FOUND,8316.033125013291
4d3c46933ec9a35dbb1c4781,Kan Restaurant,26.319489,50.111252,Middle Eastern Restaurant,No rating,0.2409090909090909,,NOT FOUND,9689.00844354629
587f2db6ac13697aa07f0b09,Somali,26.322503,50.112113,Restaurant,No rating,0.4634297520661157,,NOT FOUND,10053.35154533426
636f87dc1698612345c5b27f,Freshhouse,26.324066,50.111997,Restaurant,No rating,0.8450413223140496,,NOT FOUND,2329.9558947647474
5c7ce9af3ba767002cccbeb1,Fushi Sushi,26.328817,50.109325,Sushi Restaurant,No rating,0.9387017657921998,,NOT FOUND,9785.525463195601
544784d0498e1c9f6b6cae38,Sandella'sسانديلاز,26.327604,50.110768,Deli,No rating,0.8768595041322315,,NOT FOUND,3982.427003086535
540225f7498e30d5fce07212,كرسبي كريم,26.319956,50.115266,Office,No rating,0.981198347107438,,NOT FOUND,3891.0432300038833
56074401498eb66112e7f1fb,T,26.321403,50.116895,Burger Joint,No rating,0.6952479338842975,,NOT FOUND,6798.611856128953
53706fa7498e45dc3b1e2918,صب واي | Subway مطعم ال مغيدي,26.323511,50.118408,Sandwich Spot,No rating,0.4619834710743801,,NOT FOUND,2296.8709591632746
6249bc2aba4b9f64265c5fab,استراحه مشعل,26.315233,50.127648,Afghan Restaurant,No rating,0.1766528925619834,,NOT FOUND,13006.589676410438
5ca88da33abcaf00398dc999,McDonald's,26.314114,50.14771,Fast Food Restaurant,7.3,0.5080285320882466,,NOT FOUND,2012.1931851886923
5c36e3680a08ab002c05d534,CPC Snack Bar,26.326041,50.136477,Diner,6.7,0.8668226476038636,,NOT FOUND,3293365.5914262836
50583588e4b0eaaf498b5bdb,DH ITC Dining Hall,26.327873,50.13889,Diner,6.2,0.9693973683393208,,NOT FOUND,2382.233254157543
52a6c42611d24eadcd37ee46,صب واي,26.314222,50.147741,Deli,6.3,0.8712639632271489,,NOT FOUND,2090.7042433149454
565eaa58498e5876a2a4d9cb,Steal Bus,26.323631,50.138825,American Restaurant,No rating,0.0998416034288199,,NOT FOUND,2963853.7710398673
52602fe411d2b01f566257ba,Foud Court Sait (ساحة المطاعم),26.323938,50.138508,American Restaurant,No rating,0.9440849751017154,,NOT FOUND,3761.104614886754
52ebf4e5498ec4dbf03b91c8,Subway (صب واي),26.324469,50.133463,Deli,No rating,0.0105371900826446,,NOT FOUND,2168.258012815142
4ee8e637be7b2085289e7441,Urban Restaurant,26.315425,50.139921,American Restaurant,No rating,0.8971074380165289,,NOT FOUND,4011.7772271476715
21dc60a81dcd4f32237c52e6,Sizzler House,26.314554,50.131878,American Restaurant,No rating,0.6770661157024793,,NOT FOUND,380005.81079742475
62ef78b4f004567ed4811f71,Dinning Hall,26.328213,50.138211,Diner,No rating,0.7063762384437796,ChIJ0zuLEgDlST4RMcip_vbHHX8,OPERATIONAL,19.989124975005996
4cc552c5806246884a663b2f,Graffiti,26.317368,50.144727,Sandwich Spot,No rating,0.7759568498752497,,NOT FOUND,8299.318334347032
52a43659498e1e66f1e61474,برجر كنج,26.314145,50.14782,Burger Joint,5.8,0.2716242377812057,ChIJETKZ2WbmST4RDCg0r0Vqb14,OPERATIONAL,12.593851913440666
52ea6993498e187a34807f3f,Eleven Stars,26.315154,50.144128,Arcade,No rating,0.2898036089571708,,NOT FOUND,4202348.100277646
51365737e4b07b9c7ae57325,Khfaif Time,26.313631,50.142816,Sandwich Spot,No rating,0.5559917355371901,,NOT FOUND,10775.502383916895
5da2e82fc36fe8000891c7a0,شواية الشرقية,26.31497,50.144177,Middle Eastern Restaurant,No rating,0.1529924528692555,,NOT FOUND,5544.904225912067
5a1fcb0a65cdf8220fa9a84c,Pink House,26.329961,50.137395,Restaurant,No rating,0.5385586947294317,,NOT FOUND,9178.915496439193
536fcf49498e598478c5d071,canton (كانتون),26.314464,50.144842,Cantonese Restaurant,No rating,0.8802811797956374,,NOT FOUND,2721.474447726912
4fe237cbe4b0f5d1cc130a93,دجاج كنتاكى,26.324487,50.147167,Fried Chicken Joint,No rating,0.9128094168314476,,NOT FOUND,2561.0590418219363
53fc490d498e5054f695a057,KFUPM Mall,26.313449,50.144754,Comfort Food Restaurant,No rating,0.2115370679034712,,NOT FOUND,295.0657635114765
524db6a8498ea29940b4117b,Chinese & grill restaurant,26.318356,50.148248,Asian Restaurant,No rating,0.7629745426687234,,NOT FOUND,6161.5278088482855
6158acb6203a3772c6caf8b3,ماك,26.314229,50.147319,Fast Food Restaurant,No rating,0.8841841541312517,,NOT FOUND,2006.7036365134952
5d99a18f0279ac0008d433a5,Pizza Galleria,26.314083,50.1476,Pizzeria,No rating,0.3628937914755727,,NOT FOUND,46789.86108326525
5497db90498e855d5f8f68d0,مطاعم روابي نجد,26.314083,50.147836,Middle Eastern Restaurant,No rating,0.8806849357613906,ChIJVe-U0mbmST4R9rFM0FjOBbc,CLOSED_PERMANENTLY,62.272064412024974
57e79d48498eebbe22491d71,Shawarma Guys,26.314099,50.147773,Shawarma Restaurant,No rating,0.7256944084975102,ChIJxXIQ1mbmST4RyVDvR1R7ZB4,OPERATIONAL,23.344829472859974
53a80793498eccf76019af91,La Casa Pasta,26.314114,50.14771,Italian Restaurant,No rating,0.8817823237708736,,NOT FOUND,2398.488897212312
5bd871aa666116002cb4c7a6,Curry N Hurry,26.314099,50.147773,Indian Restaurant,No rating,0.469247253941797,,NOT FOUND,2391.1493702882503
4eeb7a74e3000c69e19856b4,The Specialist (المختص),26.322872,50.158817,Sandwich Spot,8.8,0.9914705477135808,ChIJDdFGtG3mST4R2YGabDy20UI,OPERATIONAL,6.773924377585941
525446c7498e764f985d08e3,Rayiq (شاورما رايق),26.323336,50.161884,Shawarma Restaurant,9.0,0.998421863453614,ChIJMdpZIG3mST4RitCL34jlPzs,OPERATIONAL,3.6162559416538933
632d89e52f5dc66afe26bc7e,Roshaz (‎بخاري روشاز),26.322478,50.157064,Afghan Restaurant,8.1,0.957803634724014,,NOT FOUND,12362.08215007101
4be4932dcf200f478228123c,Mozon (مزون),26.323584,50.163473,Middle Eastern Restaurant,8.7,0.9979584424042786,ChIJEYweJRPmST4RKWK3vcg_DlI,OPERATIONAL,2.6872076219110044
53f634e0498ecb81e3ee6b1f,Melts (ميلتز),26.323429,50.162923,Burger Joint,8.4,0.9732092533911147,,NOT FOUND,566103.5617135927
50c9de03e4b081a53d5c4189,Medar (ميدار),26.325616,50.166719,Seafood Restaurant,9.0,0.990255633070728,ChIJX9SAShLmST4R4oqKvWhYeRo,OPERATIONAL,23.920884446284816
4eb50a70be7bfc284a1ef9de,Saadeddin (سعد الدين),26.32298,50.15932,Bakery,7.9,0.9594569206297516,ChIJazv0sm3mST4RemnMRzEQes4,OPERATIONAL,7.624988087853307
5d5c69215eae090007629aa4,GOAT (غوت),26.331465,50.161815,Burger Joint,8.9,0.996355256071442,ChIJY3z4VdbnST4RJGUYDDwrEVI,OPERATIONAL,10.415602140021857
5b734f460a08ab002bc5d4bb,مشويات المعلم الشامي,26.322841,50.158707,Lebanese Restaurant,7.7,0.9567014441201888,ChIJhaE1nEDnST4RfCKiTucdJGo,OPERATIONAL,12.55817817361334
5800d0c138faf0b9056c0774,Noodlez (نودلز),26.329975,50.162502,Noodle Restaurant,8.6,0.9663957114765596,ChIJ2Zt_bt_nST4RHjzDA1taUMw,OPERATIONAL,16.789801678853827
5d91c205a1a1e400070e50f2,Alsomali Resturant (المطعم الصومالي),26.333141,50.148495,Restaurant,8.9,0.994885757767126,ChIJ3QcQ0erlST4RizquV34KqaA,OPERATIONAL,12.709593727976772
5c0d4b3a270ee7002c347a07,Oriental Gate (السور الشرقي),26.333465,50.149769,Chinese Restaurant,8.5,0.9651838124915884,ChIJqygh3VTlST4RExh7KRmsdJ8,OPERATIONAL,19.064779673178865
619a6abc583b5c0234e78c0e,Streat Hub (ستريت هب),26.331605,50.161772,Burger Joint,8.4,0.9389160957402838,ChIJeR8bjqvnST4RV4ASjE5lJPY,OPERATIONAL,12.513011678323343
5efdff879024e00008bb13c1,The Sushi Bar (ذا سوشي بار),26.330083,50.162769,Sushi Restaurant,8.3,0.9757893813955236,ChIJS8ueUBTnST4RwOpNvMsaG6E,OPERATIONAL,24.43141046289879
63dd3436628a181cdcaec407,CHICK-ED (تشيك-اد),26.333136,50.148926,Fried Chicken Joint,8.3,0.9688590270516496,ChIJNfXDIv3lST4RndKxLZd0zsY,OPERATIONAL,15.283878983247906
4be73ec8d4f7c9b643a92720,McDonald's (ماكدونالدز),26.332052,50.151085,Burger Joint,8.1,0.9985220625994164,ChIJnUqjDHjmST4RVAlxzP2RmrU,OPERATIONAL,7.585137005935569
5b64a2e8628c83002c2f42bc,Burgerizzer,26.322407,50.155513,Burger Joint,7.1,0.9358600217933142,ChIJH9hsl4DnST4RBV6NY6ICnxI,OPERATIONAL,26.326417841770713
5c0beb9f6e4650002c72ebff,Innovation Burger (إينوڤيشن برجر),26.323584,50.163473,Burger Joint,7.6,0.682506481632244,ChIJQdUMlsvnST4RRvM_yEjssVg,CLOSED_PERMANENTLY,11.212934641381201
5d56e2203a559e0007a9c785,Planet Zero Health Food,26.317661,50.157765,Restaurant,7.3,0.9468568780451146,ChIJCTNTE8znST4RLX2AWV03BdA,CLOSED_PERMANENTLY,11.081670642359292
5bd6d5b1237dee002cdc2962,Ekbisha (إكبسها),26.322468,50.155733,Restaurant,7.0,0.5193071229067773,ChIJ1WDt72LnST4RA5Glwa41yGI,CLOSED_PERMANENTLY,2.8022464321421894
4d2b5b90915fa0935c7e160a,Herfy (هرفي),26.324323,50.164933,Fast Food Restaurant,7.4,0.9768038977467716,,NOT FOUND,3371.3756959572743
4ba51415f964a520f6d938e3,مطعم فطوطة,26.325462,50.166642,Middle Eastern Restaurant,7.5,0.94665647975351,ChIJZyLuNRLmST4RBHRVLG0tchQ,OPERATIONAL,11.944258102413812
60ce2df03008915c3a5f5daa,Days (دايز),26.322378,50.155641,Burger Joint,6.7,0.983880462419058,ChIJW_til6_nST4RJbXp0qY1NBU,OPERATIONAL,8.771130268727015
4e8206f46da1b865a442a5ab,Farm Superstore 8 (أسواق المزرعة ٨),26.333357,50.149501,Fast Food Restaurant,7.3,0.995931382191256,ChIJU72cWtblST4RFrR8xmPyfB8,OPERATIONAL,26.802642036392566
4d1de9a40901721eadc57ca5,دجاج كنتاكى,26.330575,50.163112,Fried Chicken Joint,7.1,0.9826279730965294,,NOT FOUND,2671.9353678712278
61898564fc3b5f3ebbb47b67,Lahza (لحظة),26.323185,50.161273,Middle Eastern Restaurant,6.7,0.986435540637016,ChIJd1f20SDnST4RzzonIMaFNJ8,OPERATIONAL,9.00240158592711
4d7752cd78d5a0930ebf7d72,Burger King (برجر كنج),26.330667,50.163206,Fast Food Restaurant,6.7,0.9832917924374694,ChIJ20mTsAzmST4R_Hwq7gaeqj0,OPERATIONAL,13.159854340109263
4cff9ee121ea6ea88db43d9f,هارديز,26.331035,50.162637,Burger Joint,6.5,0.926716849738856,ChIJpw0OtAzmST4REdmBeYCC21o,OPERATIONAL,39.34393665865919
50420367e4b01555a64fd98c,القدر الكاتم,26.323661,50.16363,Middle Eastern Restaurant,6.3,0.9549855337483248,,NOT FOUND,4930.392222822544
61b7935c093c3237d1c1f920,شرمب وشكن,26.322302,50.155626,Seafood Restaurant,No rating,0.0842048571535927,ChIJxx1AzYrnST4RmpvEP_reT-U,CLOSED_PERMANENTLY,20.161449897191925
5901c3c966f3cd3ef44f90f7,Captain Chicken,26.322391,50.155576,Restaurant,No rating,0.0273418419107977,,NOT FOUND,3252330.0287105558
5be2f7fb8496ca002c31ed04,Ekbis_ha,26.322177,50.156459,Restaurant,No rating,0.1037186407985872,,NOT FOUND,
4efc6144c512b6718a6feef4,مزون,26.321149,50.157852,Middle Eastern Restaurant,No rating,0.8691023409025438,,NOT FOUND,625.0760358551207
505b4d1be4b0040c9f357a98,Filfilah (فلفلة),26.323138,50.163177,Middle Eastern Restaurant,6.0,0.9453914655377564,ChIJjegEOhPmST4R7Kkn0gbWJbw,OPERATIONAL,7.173328688572332
51f2f2ea498e0d156ce1e388,حلويات سعد الدين,26.322763,50.157841,Bakery,No rating,0.6067559274057188,ChIJazv0sm3mST4RemnMRzEQes4,OPERATIONAL,154.92550948004376
5e230f95e04f490007275794,مطاعم خروف المعلم,26.319306,50.158573,Restaurant,No rating,0.9246001427837828,,NOT FOUND,22381.472348355903
62b0668dcd642a70117caf53,The Peak,26.317249,50.157409,Burger Joint,No rating,0.1834270612843025,,NOT FOUND,992.9022297108311
6041536529ce7a31ae2a9532,Tam Tam (طم طم),26.322791,50.158982,Hot Dog Joint,No rating,0.3329742863942085,,NOT FOUND,
4d65eeab05a7f04db988ad8f,Kudu (كودو),26.323416,50.16464,Fast Food Restaurant,5.9,0.9445147230119864,ChIJ077_ERPmST4RfRt6YPpQrUE,OPERATIONAL,38.21882955264433
5aa67c98872f7d145ab9c2bd,مطعم امي,26.323011,50.160139,Dutch Restaurant,No rating,0.2978544857905086,,NOT FOUND,17234.97725716447
5ff1b8c7a6930e53eaeb34b4,مكبوس اكسبرس,26.323058,50.160422,Restaurant,No rating,0.9827281722423316,ChIJDaPSAW3mST4RRt1KWY-l_rA,OPERATIONAL,24.334964281059403
5e5941127af9bb00081b5a1a,The Lab (ذا لاب),26.328995,50.180774,American Restaurant,8.0,0.9275184429052742,ChIJ6wcIcHDnST4RLEaHVfKU8sA,CLOSED_PERMANENTLY,43.865793044057575
4dcffeee183899ddfaf9e338,باسكن روبنز,26.332236,50.179509,Ice Cream Parlor,8.1,0.9425984143485177,,NOT FOUND,9361.553329033815
4ed2e9761081bc34fc3d1d5e,BurgerFuel (برغر فيول),26.310025,50.171466,Burger Joint,7.5,0.8754900364474393,,NOT FOUND,254.80695154815268
5fb81c7d91b49305168c97cb,Shrimplus (شرمبلس),26.328334,50.180888,Seafood Restaurant,7.5,0.9457171127616136,ChIJ5QF-fEjnST4RCe1BUuDrN9A,CLOSED_PERMANENTLY,61.15408332963454
5c716f52535d6f002ce2bb9b,Thermo (ثيرمو),26.328026,50.179788,Steakhouse,7.2,0.9663080372239826,ChIJKZa7bPnnST4ReO10vHBCr_o,OPERATIONAL,10.372389027540173
5b708a66037be1002cf2f3dc,Burger Chef,26.324913,50.171038,Burger Joint,No rating,0.9127891684723388,,NOT FOUND,1239.3028147840523
5c253daee97dfb002c605db7,Alsaadan’s Tent,26.318651,50.176936,Sandwich Spot,No rating,0.949725078593705,,NOT FOUND,3259.358978606664
522af43511d27ece1bcdb9a1,Crispy Meal,26.317397,50.168348,Burger Joint,No rating,0.7493017372026903,,NOT FOUND,11044.038294635022
60d38280d9de774423c858a7,المخفي,26.317505,50.167341,Burger Joint,No rating,0.8503024761713907,,NOT FOUND,1081124.1263834578
5da229ff7d116f0008428b52,مطاعم سماء ديرتي,26.323816,50.165361,Yemeni Restaurant,No rating,0.5621923573101539,,NOT FOUND,4076.55911323927
59dc75742079553df2c82f93,مطعم الهند الحديث,26.324462,50.16531,Indian Restaurant,No rating,0.4803922796558159,,NOT FOUND,1527.5855795475472
635663330b4e42348c049838,حاشي باشا,26.323988,50.164738,Middle Eastern Restaurant,No rating,0.970190754123821,ChIJbRam-mfnST4Ro5JK8TkrWLA,CLOSED_TEMPORARILY,94.2603324409965
525ed723498e0707558af769,Oriant,26.323125,50.180544,Chinese Restaurant,No rating,0.6029233100787815,,NOT FOUND,
4d9044c4ca75b60cd81925a9,Shabab Albukhari,26.318405,50.16324,Restaurant,No rating,0.4871932966771458,,NOT FOUND,517.0095887946874
5cba1cff2b98440039e999fb,كبسة العز الأكلات الشعبية,26.323614,50.163583,Middle Eastern Restaurant,No rating,0.673851780413572,ChIJPU8CwDLnST4RWRB18qyUOL8,CLOSED_PERMANENTLY,11.11160387604665
5e7d97a21eef92000873855b,جوعان,26.321232,50.162733,American Restaurant,No rating,0.9635776105008704,,NOT FOUND,11788.77995884209
62a08fdfe73a143f3f0bb2df,Koshary On Time,26.329387,50.173752,Theme Restaurant,No rating,0.1656291880111722,,NOT FOUND,4056.410771777197
61476ec22355c86d6865e202,Lazha Resetaurant,26.323142,50.16132,BBQ Joint,No rating,0.0548214576470735,,NOT FOUND,9659.484004686332
4d55576958856dcbe3aa486d,Schlotzsky's,26.314809,50.162886,Sandwich Spot,No rating,0.934795405869165,,NOT FOUND,11117444.616210025
62f65b07f199207f74f16013,Bebu (بيبو),26.318372,50.194084,Burger Joint,7.9,0.0674841246978369,ChIJs6dKgoPpST4R1F3GUpUrH8A,CLOSED_PERMANENTLY,12.922747284026402
620eab31471781672d752cf3,San Carlo Cicchetti,26.317793,50.203803,Italian Restaurant,9.3,0.9934369559499504,ChIJyZ9sBbLpST4ReM4ZMZwOEFY,OPERATIONAL,53.86391948854295
60f16c3b3f1d11614da2cbd8,AGHATTI (اغاتي),26.317974,50.203748,Iraqi Restaurant,8.5,0.9826029233100788,ChIJbzHOCkfpST4RLcxJHAirhI4,OPERATIONAL,38.714419975250415
4d162c37bb488cfa1b7aa4d4,Blue Strawberry,26.325373,50.202566,Dessert Shop,8.3,0.9012662667050764,ChIJR8owvZToST4R85_RA3yfxYg,CLOSED_PERMANENTLY,22.10257813546012
64263ce71e5e33329b5a9c87,House of Agapi,26.317751,50.204029,Greek Restaurant,8.3,0.9679988978093962,ChIJ4axl0h_pST4Rlc_-P5G1fWs,OPERATIONAL,6.789288767246941
4fe21078e4b0edfa93d877df,Mahraja Restaurant,26.323671,50.188962,Indian Restaurant,7.3,0.896857504289776,,NOT FOUND,2785.0242273262716
60af9976bc414b5b7f3ed07a,Seventh Floor (الدور السابع),26.333069,50.18703,Restaurant,8.1,0.9605215365539008,ChIJMbcrwWjpST4RV21V2XSdlOQ,CLOSED_PERMANENTLY,50.23979411171033
64263301b6893e7e81d52957,باسكن روبنز,26.328768,50.180609,Ice Cream Parlor,7.8,0.8655452712265628,,NOT FOUND,9678.685085318371
5c7a788e8d0a53002c8c6067,Thermo,26.318347,50.180086,Steakhouse,7.6,0.7252539422101426,,NOT FOUND,1081.8950731192854
5f1df2e2b5d99d7356580e86,Pikniq (بك نك),26.318169,50.203807,Restaurant,7.7,0.985245675780614,ChIJmQku2Z3pST4RzPMOOtpWiso,OPERATIONAL,25.032350597929334
5f0f256ef554670e3dae4c58,Merge (ميرج),26.328687,50.180382,Modern European Restaurant,7.4,0.8860735712228053,ChIJ_T7LggjnST4RGp3BFgooOps,OPERATIONAL,31.77146686207164
634ea3afef4a5278937593b4,Meat at Tony’s (ميت ات تونيز),26.3167,50.203722,Burger Joint,7.3,0.9939880512518632,ChIJa73RgavpST4RcRYCBwLUPG4,OPERATIONAL,11.0182446080251
5703f875498e52dae803d7b9,O burger (أو برجر),26.316956,50.204067,Organization,7.3,0.8672611815984269,,NOT FOUND,9946.261504038492
4b616e4ef964a52045132ae3,Flamingo,26.316818,50.203926,Middle Eastern Restaurant,7.2,0.9461554840244988,ChIJi7sAGBXpST4RQuyWSBiHImk,OPERATIONAL,14.503992619318073
6446c83fff1a333ace1bdfa3,Have It (هاڤ إت),26.318299,50.194005,Burger Joint,6.6,0.1148532708758657,ChIJ1ywFarXpST4RyopuOHtOpew,CLOSED_TEMPORARILY,7.042286373091297
601c1a9bac59ba3c07557b09,Kk,26.319494,50.190767,Armenian Restaurant,No rating,0.7694167157224985,,NOT FOUND,13243.250332890151
5dc6915a1f0d2900089aa290,Eatatseven,26.32158,50.18715,Restaurant,No rating,0.4596761062611941,,NOT FOUND,2611.0236780714054
60032d580f4eba3d9f20b12f,Carbon,26.318453,50.194111,BBQ Joint,No rating,0.6014578975714232,ChIJezE_ojvpST4RRk2Chl08ajM,CLOSED_PERMANENTLY,30.373964097208773
521b26cc11d276316efc1363,Sushi Restaurant Oasis,26.322678,50.195186,Sushi Restaurant,No rating,0.2445360153304693,,NOT FOUND,3415.130083844953
5c3e33c0b23dfa002c1d1631,Marinade,26.315099,50.189442,Restaurant,No rating,0.6950438997507546,,NOT FOUND,1215.0680694965636
5ff368ada6930e53ea676acb,Hoshi Sushi (هوشي سوشي),26.328057,50.180606,Sushi Restaurant,5.9,0.910559737478238,,NOT FOUND,29705.69887268304
57033c33498e10db04fbbf76,Burger Works,26.313348,50.190256,Burger Joint,No rating,0.5016595483523503,,NOT FOUND,24065.758731685004
55b611ad498ea86785c5146c,التصبيره لاونج,26.327626,50.196367,American Restaurant,No rating,0.9073784145990156,,NOT FOUND,1691.9198292925
6133112caaee877c45aba766,Naif,26.31789,50.19981,Fast Food Restaurant,No rating,0.8548740621986197,,NOT FOUND,3686.8182302170926
58b6fe0dda54ae0320275025,Pets Houses,26.323171,50.179882,Steakhouse,No rating,0.9168597587705564,ChIJsY0jgh_mST4Rv1nYeRA6ix0,OPERATIONAL,5.25462782893322
4fd64f91e4b06a2d8e50a90a,Bites,26.322756,50.179696,Fast Food Restaurant,No rating,0.2655903608421738,,NOT FOUND,1330.7215645115316
5029c94ae4b011d2337c9c7f,Blue berry Cafe,26.325755,50.19981,Indian Restaurant,No rating,0.5981012261870468,,NOT FOUND,1538.1186911257748
4cffa8f01fcef04d1c82c6b9,ماكدونالدز,26.311449,50.196421,Burger Joint,No rating,0.9554113801179844,,NOT FOUND,5062.051597919816
5da06229ff733200080a620b,Cafe Libros,26.33154,50.192092,Coffee Shop,No rating,0.1865081850177227,,NOT FOUND,1924043.969636629
5ef057fb8d0fc40008b59b0f,Wallflower (وولفلاور),26.327888,50.180356,Coffee Shop,5.5,0.9310003632219036,ChIJt1A-NTvnST4RpxZx1F6fQVo,OPERATIONAL,20.17022421351206
5fafe7e68db0fd3be2f4c504,Queenofindia,26.328149,50.180228,Theme Restaurant,No rating,0.8631655415137586,ChIJWSEW51voST4RFS5sQk_oE9g,OPERATIONAL,18.398498953784312
56c0b48fcd10e9781e2afef2,L'avenue,26.323653,50.203254,French Restaurant,No rating,0.9286832579752258,,NOT FOUND,1997.7672842887198
640b9e73d892fc6231cef0e2,Grill It (جريل ات),26.328568,50.18024,Restaurant,No rating,0.4038276073696472,ChIJ5Q7Y5VnnST4RJtJs0McaMxk,CLOSED_PERMANENTLY,28.416933761111647
5e6e5cd3d142f10008f51389,Hiesnberg,26.328902,50.180207,Burger Joint,No rating,0.6914492553950977,,NOT FOUND,
5daf33732ab63a000765003e,The Two,26.332647,50.192746,Restaurant,No rating,0.9051114089252388,,NOT FOUND,391387.4561386819
58aec814febfbd06d053400b,مقبلاتي,26.308558,50.19293,Restaurant,No rating,0.3489059505767713,,NOT FOUND,3702.3108876682504
5db6f709272a1f00081fddf1,Arev (أريڤ),26.328365,50.180762,Lebanese Restaurant,5.4,0.9188011172204756,ChIJMxmD6PXnST4RKyUR21N-8aE,OPERATIONAL,48.31224597616408
5650313b498ea3de9af65b4c,Sea Meal Restaurant,26.329147,50.179198,Filipino Restaurant,No rating,0.9211683220400546,,NOT FOUND,6282.711587370739
630f621d12bc573dfe908c6f,Salata (سلاته),26.318995,50.208137,Salad Restaurant,8.7,0.996843726907228,ChIJZ8_GavTpST4RZvtYK5NuyoU,OPERATIONAL,16.675381777552268
6335b7582fdfb26208402b0b,‏Woker (ووكر),26.318877,50.207675,Asian Restaurant,8.7,0.988677496524342,ChIJddYjGUXpST4RRHRpPDAGQv0,OPERATIONAL,34.96245810987339
61afa97a5177b432c598b578,SECCO BY COFFÉA (سِكُّو),26.325081,50.206751,Pizzeria,8.5,0.9412206760937364,ChIJuR3Pad3pST4RHFDjGG9qp70,OPERATIONAL,10.527307724437877
57ded9c6498eec0d33124ee5,Seven (سڤن),26.326303,50.212711,American Restaurant,9.1,0.981212660162072,ChIJ-3RfE-_oST4RSjQxrk2kX7M,OPERATIONAL,15.203989853970853
6388d13906630719ab0e5aa1,THNDR (ثندر),26.319494,50.207294,Burger Joint,7.9,0.995303165040518,ChIJu1MrKe3pST4R46et82AtJto,OPERATIONAL,14.723194441291923
5264012511d2caed0b5578aa,Maharaja by Vineet,26.322251,50.216843,Indian Restaurant,8.8,0.9759772547939028,ChIJpwT8_froST4Rn2tK40uSsIM,OPERATIONAL,3.6212177555031424
5ab8bf0e8b98fd2a13b16aed,McDonald's (ماكدونالدز),26.329069,50.213639,Burger Joint,9.0,0.998772560463922,,NOT FOUND,6247.645892640315
5dd2c756eb2f3e0008c4158a,Takara (تاكارا),26.321301,50.220279,Japanese Restaurant,9.1,0.9938878521060608,ChIJw6T38FbpST4RL3ndUNgAA5U,OPERATIONAL,22.80015868815372
5c29232ef05ca8002d9a4af4,Shrimp Anatomy (شرمب اناتومي),26.321716,50.220701,Seafood Restaurant,8.6,0.986523214889593,ChIJe_EBMgDpST4RB_L-DB5XN4Q,OPERATIONAL,27.30215980345199
5e3e6618448f0b000764a356,مطعم باب بو خوخة,26.314211,50.209686,Restaurant,7.9,0.9465312308212572,ChIJw9UE9Z3pST4RqZ7hjC0uKDo,OPERATIONAL,24.082419597015466
569bd39938fa14282bca1398,The Butcher Shop & Grill (ذا بوتشر شوب & جريل),26.319597,50.221847,Import and Export Service,8.7,0.9818263799301112,ChIJn7_0WP7oST4R6AlV234Sd20,OPERATIONAL,8.270576992670028
5c7b9e48b9a5a8002ca1d011,Pound of Prawns (باوند اوف براونز),26.321255,50.220232,Seafood Restaurant,8.4,0.9292594030635888,ChIJqXZo_tDpST4RU6I8CpBm38Q,CLOSED_PERMANENTLY,10.587997546793165
626803e5c58d7d64005504a3,The Town (ذا تاون),26.320413,50.222382,Burger Joint,8.6,0.983492190729074,ChIJ5Vj3sF_pST4R7rhFxl8RzqQ,OPERATIONAL,31.03685427344181
5e4bdf027169e500087bbf47,Naya Daur (نايا داور),26.319797,50.221972,Indian Restaurant,8.6,0.937125036009068,ChIJa1zZlSTpST4RQOWYPs7VZXU,OPERATIONAL,25.931297343067516
59a186811c0b3419a58135cd,الرواق الشعبي,26.314534,50.210014,Middle Eastern Restaurant,7.8,0.9679237484500444,ChIJ3w31YPboST4RvSrgJlp4BCc,OPERATIONAL,59.15730190280856
5420289c498eaf47155dfe8c,The View Club Lounge,26.322273,50.216897,Café,7.9,0.956438421362458,ChIJSzpRAfvoST4R1nyy9vzajS0,OPERATIONAL,19.63494975383539
62499f2c62db55105e8f37fd,Slider Code (سلايدر كود),26.319632,50.222711,Burger Joint,8.4,0.9675354767600606,ChIJpcF2dNTpST4RXdgw9WVZYTw,OPERATIONAL,11.96975089533906
5e35b18b4996140007ac05af,Vicoli (ڤيكولي),26.320058,50.222316,Restaurant,8.2,0.9796094738292356,,NOT FOUND,2084.36291916743
63f5e18b840dc855ebe27291,Fatté w Snobar (فتة وصنوبر),26.319992,50.222427,Lebanese Restaurant,8.2,0.9797347227614884,,NOT FOUND,4528.088647003761
58fe0bf5646e380af692960e,Lucca (لوكا),26.314524,50.21645,Steakhouse,7.8,0.985909495121554,ChIJwxML1lfoST4RcKvnGDQL4aU,OPERATIONAL,7.700194089158589
642639477615031bd67865db,بن عاقول,26.320448,50.222322,Middle Eastern Restaurant,8.0,0.9652434212998334,ChIJpx4XmRHpST4Ro5RrEkroCcw,OPERATIONAL,18.21362005384265
4c0cdf04c700c9b63975a1dd,Krispy Kreme (كرسبي كريم),26.328101,50.213597,Donut Shop,7.6,0.8794353778134042,ChIJXxOrV-_oST4RdSehx1c2ziA,OPERATIONAL,15.885655235499144
63f3915de623aa357468338e,MAISON SOCIALE (ميسُّن سوسيال),26.319986,50.216334,Restaurant,7.5,0.425558297115517,ChIJJw73oazpST4RB7BrLdd_e6k,CLOSED_TEMPORARILY,9.029811719495715
607b3034a8476a03b3bac863,Zankil (زنكيل),26.31801,50.222732,Lebanese Restaurant,7.8,0.968913215014842,ChIJAxokAIbpST4RdDoDpRw-lUA,OPERATIONAL,22.228592805308228
63daad235ebc7747f7517e6e,CHEF BELAL & TEGAN (الشيف بلال وتيقن),26.319855,50.221988,New American Restaurant,7.7,0.9740233714507583,ChIJP4x5BlHpST4ReC1AXZW-CLk,OPERATIONAL,24.721415885503934
5dfe2aee1d883f0007ca7626,Dolma (دولمة),26.317878,50.223006,Middle Eastern Restaurant,7.8,0.8758657832441978,,NOT FOUND,13849.042310055282
6343ac41df00a12320908309,Spin Burger (سبن برجر),26.313474,50.212208,Burger Joint,7.4,0.9823524254455732,ChIJJUwm9jPpST4Rh9r4uBmyEAE,CLOSED_PERMANENTLY,36.486825243708225
63d2b53bd4729c1f2694112c,La Gioia,26.330877,50.213286,Italian Restaurant,7.6,0.9619994739544844,,NOT FOUND,2512.1124441891698
618e8f8f757a3a0201204c03,Burgerfi (برجرفاي),26.32091,50.222072,Burger Joint,7.6,0.8943274758582683,ChIJ0WV8eFzpST4RScfRRDZWwSA,CLOSED_TEMPORARILY,19.52519156830625
5af402cd3ba767002cbad9e7,خيمة موڤنبيك الرمضانية,26.321928,50.216515,Theme Restaurant,7.0,0.9460177101990206,ChIJA9OP3_roST4R7vdG9HSQ6JY,OPERATIONAL,51.58761797092295
5c012617dee770002ca33e77,Eat’sy (ايت'سي),26.320596,50.22247,Modern European Restaurant,7.2,0.9110732581004748,ChIJXWFzUVzpST4RPTKVDRBFiFY,CLOSED_PERMANENTLY,11.690229218081116
