Business ID,Name,Latitude,Longitude,Category,Rating,Popularity
5714be47498ecf6b9306ae3a,Amigo Resturant (مطعم أميغو),26.244824,49.981499,Restaurant,6.6,0.7050872304538669
53556d0e11d272d79af43d04,KFC (كنتاكي),26.244824,49.981499,Fried Chicken Joint,5.6,0.9996776459233193
5bb08ac7446ea6002cdbde3c,سكبة,26.245131,49.981418,Restaurant,No rating,0.9821875700074578
566e5bb4498e8b885036a42e,مطعم حسن ابراهيم الابراهيم,26.245131,49.981418,Restaurant,No rating,0.1477154465715045
55d2a54e498e49129ce7df99,Alshyokh 2 (مطعم الشيوخ 2),26.245332,49.981542,Fast Food Restaurant,No rating,0.9812885727490711
5c07ee8f112c6c002c880014,مطعم راكان الشمري البخاري,26.245379,49.981826,Halal Restaurant,No rating,0.9960230100331179
56ed35dc498eb51b21ebc71c,Hungry Bunny (الارنب الجائع),26.244824,49.981499,Fast Food Restaurant,No rating,0.6214111986427325
62e4f7942b90dc3b9c9facbc,Bahi,26.241187,49.974281,Indian Restaurant,No rating,0.36377586281196966
4fd8281ae4b02076fe49f71b,Dosa Shop,26.241914,49.970135,Asian Restaurant,No rating,0.5155713895280692
51d1560c498e2a039f779e7a,مطعم حارة البركة البخاري,26.240639,49.97065,Argentinian Restaurant,No rating,0.9301611900200665
588862396f20d11e265019f7,مطعم منال بروستد وشاورما,26.238534,49.971741,Shawarma Restaurant,No rating,0.9222895040479185
5fcdf6606fd0767a94aa1185,مطاعم الغرن الذهبي البخاري,26.238366,49.971963,Restaurant,No rating,0.9943152003310697
58511218040d5329d9e4f67a,Mazak Al-Madina Restaurant,26.23815,49.971902,Restaurant,No rating,0.06240201183154515
5005c247e4b0de12a41565ef,Canton,26.241627,49.984449,Chinese Restaurant,No rating,0.2715901059189213
4f1e8a99e4b00c461cd34a9a,Medinah Restaurant Dammam Industrial City 2,26.247069,50.003041,Restaurant,No rating,0.6980945855180497
50617253498e317f7b5d9476,مطعم انعام البخاري,26.255813,50.000193,Restaurant,No rating,0.6272188156221481
57b5596c498e183a9bfc0bda,Alkhafeef (عالخفيف),26.23893,49.985902,Restaurant,No rating,0.12071498358206194
5fce0d71939eba37c73ee617,الوحيد,26.235897,49.990139,Middle Eastern Restaurant,No rating,0.9967607793444345
6427317e7addef16b412d56a,Ozi Burger,26.25853,50.07674,Burger Joint,No rating,0.9716917426524003
5f69d676501fe9418689f762,مطعم النوخذة الشرقي,26.238206,50.195849,Seafood Restaurant,8.0,0.970403677308651
5075d89ae4b0f763ad94fd25,دنيا السعادة,26.249721,50.2017,Sandwich Spot,6.9,0.9894790896907604
61d48e19964afc0f55635bf3,بوابة الفريج,26.24936,50.198657,Seafood Restaurant,No rating,0.9259403063588882
6275945c1f78e52356fa82aa,Madghout Thahamah (مضغوط تهامة),26.249784,50.198761,Restaurant,No rating,0.9925727383174059
56ea82e6498edfc2496f3171,Silver Tower Restaurant (مطعم ومطبخ البرج الفضي),26.249519,50.199453,Middle Eastern Restaurant,No rating,0.9244748938515299
56ff90ff498ec999631a2bd2,Brosted Al Sham,26.249643,50.2006,Fried Chicken Joint,No rating,0.9689006901216167
517505a7e4b0ffeb9d699f1e,اسماك الربان,26.249475,50.201293,Seafood Restaurant,No rating,0.9012913164915269
6126865d9bce394bcd031d97,مطعم بخاري,26.250108,50.201445,Sri Lankan Restaurant,No rating,0.2261118973960747
5d5e6efa719d570009fa8c53,المضغوط الناضج,26.250151,50.201587,Middle Eastern Restaurant,No rating,0.41126739394546663
568bdc3b498e8ee87e6c0192,Al Shap Bukhari Restaurant,26.259216,50.192188,Middle Eastern Restaurant,No rating,0.6557032101301337
52bc0b07498ecbeb50dae0c1,Cacoo Sambka,26.238637,50.194756,American Restaurant,No rating,0.7749401936348492
54175288498e6856c663efe7,Herfy (هرفي),26.249815,50.202502,Fast Food Restaurant,No rating,0.9018173620069889
60b381f7a743f827940cc5cb,Sea Fast,26.240167,50.198307,Seafood Restaurant,No rating,0.7523452862564347
5c8f40dc75eee4002cf11c67,اب الخضراء,26.250829,50.202826,Restaurant,No rating,0.9768915719993487
5ed7aebc5d29f30008d21947,Tayyaba Restaurant (مطعم طيبة),26.254912,50.201401,North Indian Restaurant,No rating,0.6488395686426773
561e181f498e3dede4fa6761,Blue Garden (بلو جاردن),26.255244,50.220898,Lebanese Restaurant,8.1,0.9824526245913754
63ea568514027f420411ef88,Chef Eyad Smoked Meat,26.255537,50.221155,Steakhouse,7.9,0.9661827882917298
55fc1953498eecd40ebc8467,Q Burger,26.25679,50.204094,Burger Joint,6.9,0.9837051139139039
5ff075e602475516d835032d,Ocean,26.255244,50.22137,Seafood Restaurant,6.9,0.07546248168234365
51952912498ea6c3950b15c4,هارون الرشيد,26.250671,50.211539,Lebanese Restaurant,No rating,0.4918149822772761
55fdb072498ef77d568f3808,Cocktail (كوكتيل),26.250717,50.211586,Sandwich Spot,No rating,0.9521549078794104
50b07bcee4b0d8a9f06bc87a,Great American Cookies,26.240495,50.205123,Dessert Shop,No rating,0.08907704061822873
55e05ae1498ed66529b1bb4d,خليها بحري,26.258848,50.20438,Seafood Restaurant,No rating,0.8765421274783632
5f9da34f8c590222cdb4151f,المچبوس,26.260338,50.204638,Sri Lankan Restaurant,No rating,0.7652334013852532
59fc4577ca18ea37453f5354,دار العقبه,26.259953,50.203382,Restaurant,No rating,0.31920942873962
50b7b64ae4b04927890dc6cf,لا استانسيا,26.254491,50.220211,Argentinian Restaurant,No rating,0.0931852055961223
4f4e52aae4b0f92025a3c131,D.Tandoori Restaurant,26.255567,50.221226,Asian Restaurant,No rating,0.8863365939805363
51717d96e4b0ab126229b363,مطعم عمو حمزة,26.255551,50.220818,Seafood Restaurant,No rating,0.8600914580420559
525eb3c7498e0707539de508,Roshan Indian Restaurant,26.255613,50.221273,Indian Restaurant,5.8,0.4617301887501409
5f9815e01f67181f27070f14,أوريا,26.255812,50.221162,Restaurant,No rating,0.9009155696947684
dd2e74ac8813497386d9f890,Bluemar Restaurant,26.258651,50.219415,Restaurant,No rating,0.11893638606730877
0903a09e0bb74fcaf0d2b591,Le Cafe de Paris,26.258574,50.219023,Restaurant,No rating,0.8122769003394246
53398572498e18d7e6b96c1b,Ibn Khaldoon Plaza Center,26.275827,49.96724,Fast Food Restaurant,No rating,0.23887602891951848
64612c24993bb400f54696fb,Mohammed almashhed,26.260971,50.074734,Restaurant,No rating,0.3823606545976832
4f2663b3e4b0b653a57a27a6,مطاعم شواية الخليج,26.269663,50.123135,Middle Eastern Restaurant,No rating,0.8363350011287738
5379e978498e3b7044e19a91,Chilis,26.270149,50.137775,Mexican Restaurant,No rating,0.9282413454586728
4ef5a09dc512f2277718812d,ملك المندي,26.268732,50.186385,Middle Eastern Restaurant,No rating,0.9304868425996669
507ef199e4b08b12cc12c812,بروستد بركة,26.272264,50.18534,Fast Food Restaurant,No rating,0.00862965143222154
4de2f27e2271bfb844a8c03a,Kibdat Al-Hijazi,26.270099,50.186675,BBQ Joint,No rating,0.9374381583397001
52a1a65f11d2ab6a996f828e,Shwaiat Al-Khalij (شواية الخليج),26.269443,50.189858,Restaurant,8.8,0.9935872546686539
5a018a9035811b195c94ee9e,مطعم عيال بحر,26.26861,50.187361,Seafood Restaurant,8.7,0.9904059317894315
4bb3ac6ba32876b07c0c02fe,Abu Hilal Restaurants (مطاعم أبو هلال),26.270769,50.193641,Breakfast Spot,9.1,0.9947645946318308
522b3bd0498edcff591659c2,مطعم ومشويات هارون الرشيد (رايق),26.2702,50.193141,Shawarma Restaurant,8.6,0.9957290114101778
53347813498eaacc9244080c,مطعم مشاوي الغربية للسيريه,26.269952,50.191318,Ethiopian Restaurant,8.1,0.9892160669330294
4dadc535f7b1e810c136da4b,Peshawari Kebab House,26.272414,50.194448,Pakistani Restaurant,8.8,0.9926729374632082
5c09732b840fc2002ca64559,مطعم تكة اهل البحرين,26.269152,50.190347,Restaurant,7.7,0.9588181510752621
4ef770299adf7bbf88a713ed,بلاد الشام,26.274682,50.190076,Middle Eastern Restaurant,8.5,0.9883768990869353
5697e7b138fa599313eb4d27,Lahza Shawarma & Grill,26.269522,50.191194,Shawarma Restaurant,7.5,0.9633521624228153
5294371e498ee94403beffb5,كودو,26.268749,50.187738,Fast Food Restaurant,7.5,0.9692263373454741
4fd1e76ce4b0d87d3582010e,Shwaiat Al Khalij,26.278277,50.190431,Middle Eastern Restaurant,8.3,0.9810874112298192
5aec82d465211f002cb8d71e,Hashi Basha (حاشي باشا),26.269923,50.192387,Middle Eastern Restaurant,7.4,0.9681491965280996
4e6fa160c65b6d433affdcf4,Kufah (كوفة),26.280091,50.191725,Fried Chicken Joint,8.4,0.9845818564396739
5354e240498e5f75d1611123,مطاعم شواية الخليج,26.269075,50.19019,Mediterranean Restaurant,8.9,0.9951904410014905
4d6a1ab20a25b60cbb902d90,Mandi King (ملك المندي),26.27065,50.196505,Middle Eastern Restaurant,7.6,0.9868112874337747
5051c678e4b06a9490d48db9,Top Meal,26.268817,50.20501,Fried Chicken Joint,7.4,0.9819140541826881
4d6a6e8a9bd6a143941a6ddf,دجاج كنتاكى,26.268476,50.187594,Fried Chicken Joint,6.6,0.9825528237371777
504b6850e4b03dcfecc208f3,مطعم الصقر الذهبي ٢,26.273028,50.194759,Middle Eastern Restaurant,7.0,0.9605090116606756
52fe5a4f498ed97473c7ec5b,بروستد الكندي,26.272092,50.195064,Fried Chicken Joint,6.8,0.9863603912776644
503b7671e4b01034f2ec2dd7,Herfy (هرفي),26.269136,50.189702,Fast Food Restaurant,6.5,0.9496248794479027
4f9d2d17e4b061449380684b,Meshwar Restaurant (مطعم مشوار),26.269505,50.190549,Middle Eastern Restaurant,6.2,0.9785072832254105
4e2acdec18387cce066b702d,Fillfilah (فلفلة),26.269184,50.189601,Middle Eastern Restaurant,6.0,0.9695770343557821
5d234b63b55cb80023b1d1ab,Chef Pasha,26.268844,50.189484,Restaurant,No rating,0.07471098808882655
4fc668bce4b09c44d2312608,منتو و يغمش الطائف,26.269075,50.19019,Middle Eastern Restaurant,No rating,0.12736563920792576
58ab31b59958420640263983,Gunesh (قونيش للمأكولات التركية),26.269582,50.190234,Turkish Restaurant,No rating,0.018799864731153165
5a5f4a89c58ed758fa3363d3,تتبيلة زمان,26.269458,50.189795,Sandwich Spot,No rating,0.8102353427437031
52821c11498e22a8874e2de2,DURAT ALSHAWAYIH (مطعم درة الشواية البخاري),26.268903,50.188288,Afghan Restaurant,No rating,0.9598451923197355
4ee4b10d722ea7b94561af59,مطعم تراز للكبسات,26.269491,50.19132,Middle Eastern Restaurant,No rating,0.9353089264914016
4e1cabfba80980ebf5a44801,Baraka Restaurant,26.268473,50.187693,Fried Chicken Joint,No rating,0.00011272403902756728
55c58dcf498e6be950bf64ce,كفتيريا صباح النور والعافية,26.269967,50.191019,Afghan Restaurant,No rating,0.9161082651770394
5e39d32f3fdab200084547f1,Broast Al Tazaj (بروست الطازح),26.269983,50.191427,Fried Chicken Joint,No rating,0.9752257612003857
522b4de711d284ab80f94b92,مخبازة الصقر الذهبي,26.273489,50.194756,Middle Eastern Restaurant,5.9,0.9486729875627811
53af32be498e1da25de62c6c,مطعم العمدة | للأكلات الشعبية المصرية,26.278909,50.192331,Restaurant,6.0,0.9513282649265415
525ecece498e9fa9e9d9fb99,Band burger,26.271108,50.194614,Burger Joint,No rating,0.9744742676068686
52552308498eb3cf4a957af7,شباب البخاري,26.270771,50.194821,Afghan Restaurant,No rating,0.971418193659899
50a61760e4b0cd103aac5e2b,مطعم ومطبخ نور الحجاز,26.267993,50.197025,Middle Eastern Restaurant,No rating,0.9748625392968525
5309faf2498eb8684e0726ed,مطعم مكة,26.271463,50.195524,Indian Restaurant,No rating,0.7452060971180221
5616cd1c498e0e4ac4989680,مطعم ومطبخ ذوق عدن,26.270664,50.195734,Restaurant,No rating,0.9294347515687429
5bacfdf93d479100398d155d,Joafa Restaurants,26.27422,50.189135,Turkish Restaurant,No rating,0.8856978244260467
5b48c04167af3a002c8468fb,ماكدونالدز,26.26643,50.212952,Burger Joint,8.8,0.9949524680302101
5c1b61392db4a9002c8c2986,Raising Cane’s (ريزينج كينز),26.268845,50.216035,Fried Chicken Joint,9.1,0.9904184566826568
5ff25ce74c12d24366ac950a,Golden Gate Restaurant (مطعم جولدن جيت),26.272377,50.215463,Lebanese Restaurant,9.0,0.9879385278240503
57fbd22e498e56a512c6d413,مطعم راعي المشويات,26.269356,50.20658,Middle Eastern Restaurant,7.9,0.9698150073270625
5c792323364d97003937579c,Palm Grove (لذة النخيل),26.277304,50.212225,Indian Restaurant,9.1,0.9958793101288812
520e0ffe11d2fbdf7cfc4063,Shalimar Restaurant,26.27692,50.212384,Indian Restaurant,8.8,0.9511654413146128
5ddd5d21d8ba0400077ac01b,McDonald's,26.26643,50.212952,Fast Food Restaurant,7.5,0.381207650204782
4df77aa8b0fba21ee54f0a25,كودو,26.279572,50.207854,Fast Food Restaurant,8.3,0.9748249646171766
5ad5cd4a1cf2e111bab8ae57,Makbous Express (مكبوس اكسبريس),26.269214,50.216175,Middle Eastern Restaurant,7.6,0.9741861950626871
4dfbbdcd52b14520b6cf321d,Fawaz Broasted,26.268811,50.213331,Fried Chicken Joint,7.4,0.9829410954271615
56534527498e84bcdaf7933a,باسكن روبنز,26.273919,50.206976,Ice Cream Parlor,7.6,0.9431745594368808
6370b293414b291c3976551d,PZA (بـيزا),26.272649,50.22083,Pizzeria,8.0,0.9715183928057013
5baf6253bf7dde002ca1ffc4,Darin Restaurant (مطعم دارين البحري),26.276034,50.217218,Seafood Restaurant,7.7,0.9344948084317581
4ce2820541ed224b4ef1ef3c,Al Sanbok Restaurant (مطعم السنبوك),26.271784,50.220751,Seafood Restaurant,7.7,0.9580917072681956
60e7bbd49f7f843f60be41cc,Karam Beirut (كرم بيروت),26.272358,50.221107,Middle Eastern Restaurant,7.7,0.9811249859094952
538ee90d498e248f6fce155c,كشري العمدة,26.27093,50.212421,Falafel Restaurant,7.1,0.9470322265502686
59089ae95d891b37234c78cb,SunRoom Cafe and Restaurant,26.271953,50.221238,Café,7.6,0.9774677170877119
4e64dd9f2271573ad8a44ae8,Dominos Pizza (دومينوز بيزا),26.265551,50.210413,Pizzeria,8.1,0.9820518280081663
54132ab6498eaf5ffe72c50c,حلبة ديراب,26.277456,50.210887,Fast Food Restaurant,9.0,0.9881980436268367
4c3d9d36a97bbe9a6907fcdd,Golden Juice,26.280005,50.210808,Juice Bar,7.2,0.9245625681041069
4bfd83594cf820a1c294ecf4,Karam Restaurant,26.278682,50.208913,Middle Eastern Restaurant,7.0,0.9439385779236232
51402e9be4b0268b6e3545da,Laguna Eastern (لاجونا إيسترن),26.271892,50.221018,Asian Restaurant,7.0,0.8251900652546937
501fd3d9e4b0d43ab6c32366,PHD #58 Thoqbah,26.26486,50.20947,American Restaurant,No rating,0.9347202565098133
60d065d9af9db1534f585d08,One Thousand Burger (1000 برجر),26.269426,50.2068,Burger Joint,No rating,0.9700154056186671
612a891b0a67d76599561989,Thaza Restaurant,26.269625,50.206627,Indian Restaurant,No rating,0.933129595070202
61a67792752ed37e4db6e4b4,مطعم الدار العربي,26.269319,50.205679,Yemeni Restaurant,No rating,0.978356984506707
4f90587be4b000f3fc1ec97f,Sukh Sagar,26.270869,50.212909,Indian Restaurant,5.7,0.8778822910534688
5067384ee4b0bb47b20f48b2,بروستد فواز,26.266016,50.213002,Wings Joint,No rating,0.9617239263035282
54e38a50498e94a8f116d81b,Fresh Burger,26.268523,50.20314,Burger Joint,No rating,0.9350709535201213
4dd51f2922716ea3ce6ce23e,Chic King Fried Chicken,26.271323,50.206772,Fried Chicken Joint,No rating,0.9303114940945129
52f5182b498e334480324c5c,شباب البخاري,26.269196,50.213062,Afghan Restaurant,No rating,0.9513533147129921
52e55c10498ea9eceb2d1b23,Al Tabaq Al Hijazi For Montu And Alegmsh,26.268339,50.203189,Restaurant,No rating,0.9580541325885197
562a0a9a498edddd9f482712,مطعم الركن البخاري,26.268523,50.202904,Diner,No rating,0.9565511454014854
4d4d8b6672eba14366c54412,Saudi Burger,26.269429,50.202726,Burger Joint,No rating,0.9575781866459588
60b60b5d0b27be142b571eab,Bassam Brosted,26.261826,50.204462,American Restaurant,No rating,0.1008253904635463
5ad4749fbb2a4741a889ff25,BBQ Villa,26.261843,50.204361,Indian Chinese Restaurant,No rating,0.9578662591901405
5614a936498ec8d9d77a7d76,Capri Restaurant,26.267693,50.215335,Buffet,No rating,0.9231848298493255
5cc8012416ef67002ca4cf44,مطعم رجال ألمع,26.267629,50.200425,Asian Restaurant,No rating,0.9660575393594769
519f53b7498ec90aa71123e3,Southern Bell,26.27276,50.214596,Southern Food Restaurant,No rating,0.9387156974486792
5354255511d2d899c255eb4c,Purple,26.272852,50.21469,African Restaurant,No rating,0.8393932941721672
53513307498e721dc12d9c04,Chexz,26.272944,50.214548,Czech Restaurant,No rating,0.5389962550569256
5b33dd8f3260db001c5b9ff1,Brauger (براوجر),26.269706,50.216282,Burger Joint,7.9,0.8013551934469758
5a1c78a7ad17892423b68b7c,Burger Chef (برجر شيف),26.269629,50.216361,Burger Joint,7.7,0.8573539910572262
5936ee610336930dc2ccf5f1,Como Seafood Restaurant,26.278263,50.218935,Seafood Restaurant,7.9,0.979409075537631
61c7ae2f985d606695d63c5c,Shawarmer,26.267114,50.213059,Shawarma Restaurant,6.9,0.39091444245437806
53c05f93498eecb3e87beba8,Marina Avenue Resturant (مطعم مارينا أفينيو),26.273028,50.221074,Restaurant,6.1,0.2750466552272642
57f8f518cd10bc6616a95b1a,Casa Sicilia Cafe & Restaurant,26.272767,50.220965,Italian Restaurant,5.8,0.9194899863478664
4f2d4dd1e4b03caf52a21c04,New Cabalen Restaurant,26.268505,50.214119,Filipino Restaurant,6.0,0.9282323618191155
51053ea9e4b0275f78fb5193,بروستد فواز,26.267751,50.21296,Restaurant,6.5,0.47876404353652885
4ce55916b31737045798a9f6,Sportiva,26.272383,50.221125,Italian Restaurant,No rating,0.148407459826405
5af5bf398c35dc002c0ef943,Chick Time (تشيك تايم),26.269138,50.21649,Fried Chicken Joint,No rating,0.8875515086233889
5c59ed57fdb9a7002cd6f8da,Marina Palm Restaurants (مطاعم مرسى النخلة),26.268769,50.216114,Middle Eastern Restaurant,No rating,0.7292994827219098
63fe79476c8ff84da002cb48,Kottu,26.267166,50.213046,Sri Lankan Restaurant,No rating,0.7740258764294035
4e453991ae60fa7232e2540a,Shawarma Inn,26.270194,50.213558,Shawarma Restaurant,No rating,0.5213486805024987
5c70793b646e38002c205e9c,مشويات ليالي,26.268719,50.213237,Turkish Restaurant,No rating,0.8490875615285379
51a87e40498e6dd85abcfaf2,Steak R Us,26.272944,50.214548,BBQ Joint,No rating,0.3433198481982941
53598b30498e4683e0c07a90,Salad Bar,26.272944,50.214548,Salad Restaurant,No rating,0.8730101075888328
535a3a4d498ee16d010a43b3,Rj,26.272944,50.214548,Bistro,No rating,0.4096767325058554
52097c0911d227a41017f481,Gluten Free Resto,26.272913,50.214438,Restaurant,No rating,0.017459701156047645
53513359498e692b2eb621e8,Buffet Mix,26.272944,50.214548,Buffet,No rating,0.39671346801768514
535a4ca9498e19044f6c18e9,Latin A,26.27276,50.214596,Latin American Restaurant,No rating,0.5471249107601358
51d7e91f498e3efc7bcac295,Hot Doggie,26.272806,50.214643,Hot Dog Joint,No rating,0.43535276361769015
522a207e11d24fc9cade268a,مندي الرحاب,26.296254,50.03494,Middle Eastern Restaurant,8.3,0.999718016545999
4ed4adc58231c75edd615b87,House Of Iranian Cuisine,26.281488,50.026952,Persian Restaurant,No rating,0.8187483258982406
58bdc1b804aa4f6f06af9811,Amo Hamza (عمو حمزة),26.294959,50.026702,Seafood Restaurant,No rating,0.9971402530158777
63b699a8d9e6656328792511,مطعم ألذ طبق,26.284284,50.060532,Pakistani Restaurant,No rating,0.5029887878868176
6219445950798804635b713f,المذاق العالي,26.284708,50.060771,Fast Food Restaurant,No rating,0.993750215248473
5d138a6d52b6b100232aad9e,Herfy (هرفي),26.297837,50.048899,Fast Food Restaurant,No rating,0.9900990156975287
5def32099c404600081e8bf5,Iso Academy Dinder,26.290695,50.091827,Diner,No rating,0.31409843706890644
5f675a69e5c1881d231b2156,McDonald's,26.290687,50.104479,Fast Food Restaurant,7.5,0.8555785123966942
620d2e099dc0df4af0a77ff3,Ronaldos Pizza,26.289912,50.100917,Pizzeria,No rating,0.35454545454545455
61347bdb01e88621b4b62292,La Casa Pasta (كازا پاستا),26.290017,50.101297,Italian Restaurant,No rating,0.9423553719008264
5034fdf6e4b0fff57d3e724b,Roma Restaurant,26.295354,50.092312,Middle Eastern Restaurant,No rating,0.4945022771856626
504ef8d1e4b04187c829ee83,Dharahn Snak Bar Hills,26.297329,50.105565,Restaurant,No rating,0.3390495867768595
5fcb6a5d4a774867c428d4b7,Pattis Seeds,26.284141,50.123459,French Restaurant,7.6,0.03326446280991736
540f71f7498e4d4bbf396aa0,Saihat X Rahima,26.284561,50.117203,Asian Restaurant,No rating,0.8832644628099173
5eb9ae77d525fa00094452cd,Old,26.288017,50.116234,American Restaurant,No rating,0.21632231404958677
519ed26c2fc6c029649a6e95,كرسبي كريم,26.280212,50.117581,Café,No rating,0.5257771643954627
54fb0a33498ed85c976d7578,Noodle Z,26.29021,50.122629,Asian Restaurant,No rating,0.6739669421487603
4f7a1c8de4b07cdfac5b403f,Little Caesars Pizza,26.289273,50.131975,Pizzeria,No rating,0.39793388429752063
52d5397e498e0dfbff308eae,بروستد جوافه,26.284972,50.133343,Sandwich Spot,No rating,0.8101239669421487
61aa2cc60ccb660c8a33469a,L’antica Pizzeria Da Michele,26.29627,50.129184,Pizzeria,8.1,0.8706611570247934
527a56e9498e04371ed3b8a1,كودو,26.285341,50.133482,Fast Food Restaurant,No rating,0.6140495867768595
52d635c6498e3c05512c918d,3La Kefk,26.293101,50.133271,Afghan Restaurant,No rating,0.793801652892562
52026728498e4398a4b2efbb,Applebee's,26.295422,50.154576,American Restaurant,7.2,0.9205045026991144
53d6f603498e3c6389e13af7,The Sands Restaurant (مطعم الرمال),26.286192,50.158007,Buffet,No rating,0.005523477912350797
51eeea30498e5111b2d8ffef,برجر كنج,26.289514,50.160676,Burger Joint,No rating,0.7317794115805163
4d53c5c408a7b1f7d49e3592,Chili's Corniche,26.294573,50.151669,American Restaurant,No rating,0.8338842975206612
531c5e66498e16546ce0f885,برجر كنج,26.295816,50.150574,Burger Joint,No rating,0.6020661157024794
6016dfbf6a753f4ae5c50323,Sakana House (ساكانا هاوس),26.290489,50.177307,Asian Restaurant,9.0,0.9567139690134142
4bb5dbfe6edc76b07915301c,Fuddruckers (فدركرز),26.290354,50.180236,Burger Joint,9.0,0.9718816147092346
600d79518d453c64cce7f645,Rosalie (روزالي),26.29052,50.178126,Café,8.4,0.9790458536340978
600c0602ed33fd20c9bff9cb,Asmahan (أسمهان),26.290675,50.178439,Middle Eastern Restaurant,8.3,0.9710173970766899
4c272a52136d20a1f48ce661,Royal Gulf Chinese Restaurant (مطعم الخليج الصيني),26.290416,50.180219,Chinese Restaurant,8.3,0.9820393031149409
4c129f141b5cef3bc3c9edc4,فدركرز,26.290923,50.180499,Bar,7.5,0.874199972445235
52fbcd55498e57024e675ab6,Azal (أزال),26.28747,50.183826,Restaurant,7.3,0.9737603486930274
51b21d9f498ee1311a200900,اصفهاني للمأكولات الفارسيه,26.290094,50.181071,Middle Eastern Restaurant,7.2,0.6157488007414736
591ae7f2ad17896e9d8807cf,Indian Kitchen Express (المطبخ الهندي السريع),26.290309,50.181133,Indian Restaurant,7.1,0.5356020089928734
53a31aa4498e8775e913efdd,Le Café,26.292721,50.180913,Café,8.5,0.9623877456444684
520e3bd411d22902498a71e3,الرواق المغربي,26.291691,50.180416,Moroccan Restaurant,7.0,0.860635513082251
4d7101b1886c8eecc224e3bd,La Caravella,26.291845,50.180493,Italian Restaurant,7.0,0.9176112523640736
58bd36582ec36429dc897314,Fata & Sanobar (فتة وصنوبر),26.295239,50.180015,Middle Eastern Restaurant,6.4,0.8902443606668253
62d814601062757ee5b09322,Dar Mubarak (دار مبارك),26.283656,50.180984,Seafood Restaurant,No rating,0.9762528024448591
515521d4e4b02a486882443c,Islamabad Hotel - Bahrain Manama,26.290323,50.17989,Asian Restaurant,No rating,0.13613306446562543
57a49a16498ec824ccd2dc6c,باسكن روبنز,26.29023,50.181004,Ice Cream Parlor,No rating,0.45430292706754677
626d6e71511abe22cfe1eeb7,زافي,26.290339,50.180954,Fast Food Restaurant,No rating,0.14795656367029472
536a48c111d2d6ad9631fe2c,يتصرمحون بروحون,26.291337,50.179977,American Restaurant,No rating,0.6895830463045303
5152c698e4b0cdd1ef4de83b,مطعم البحار,26.290386,50.180818,Asian Restaurant,No rating,0.9111859821395023
5819b1ded0b97a20be3ecb6c,دجاج كنتاكى,26.29037,50.180881,Fried Chicken Joint,No rating,0.5911874851266893
56ae245e498eddf7baa7f312,كودو,26.29035,50.181022,Fast Food Restaurant,No rating,0.8704174546911988
4bacf6e5f964a520e31e3be3,Leil Nhar,26.2906,50.180643,Lebanese Restaurant,No rating,0.170626620408061
50b24269e4b0dc720d81572e,Qtn 1001,26.290417,50.181164,Mediterranean Restaurant,No rating,0.48735612028907455
539045c5498ec1bfd0cb36c4,أبلبيز,26.292979,50.178188,American Restaurant,No rating,0.2881977931138137
53723c27498e71c4de1936ae,Milano,26.291138,50.180797,Restaurant,No rating,0.876529602585138
5475d6b9498e321ddd691e99,Hungry Bunny,26.292366,50.180002,BBQ Joint,No rating,0.3059455668140429
5c239c9efebf31002cfac9a0,Fantastic,26.287224,50.183419,Restaurant,No rating,0.9798349219072907
543e57ed498e61ef0cd524a2,Nola's Market Rashid Mall,26.292628,50.180347,Bistro,No rating,0.2577998772560464
58ad6d13e9efba2b57a431eb,Il Forno,26.292766,50.180015,Italian Restaurant,No rating,0.3933317468468581
5cb9d4e0588e36002cbe20f5,La Pasta Fresca,26.286579,50.183942,Italian Restaurant,No rating,0.7600981951628862
532ad24c498e35931de5aaee,دجاج كنتاكى,26.287056,50.184112,Fried Chicken Joint,No rating,0.8974712240578149
520e7f7d11d2c0d40d65cb84,Kono Pizza,26.29289,50.180691,Pizzeria,No rating,0.7788730101075888
5d49c26fc525bb0008cf7ca9,أسوار الخبر,26.287364,50.184504,Restaurant,No rating,0.9377137059906564
52e9497911d20cb41ca67a95,Lacaravella,26.292461,50.181985,Italian Restaurant,No rating,0.8688267932515875
52e1610c498e0002eb9bd3ba,Khafayef Restaurant (مطعم خفابف),26.292709,50.183809,Restaurant,No rating,0.8997006550519157
52179eee11d20eb093be2e96,باسكن روبنز,26.298179,50.171685,Ice Cream Parlor,No rating,0.10643654262847409
5a4bb03e2b98442bd7b1a80e,كشري كمالة,26.280967,50.192145,Middle Eastern Restaurant,8.7,0.96838716949938
5dc1428a2441690007a2b31f,Madhina (مطعم ماضينا),26.288228,50.188291,Restaurant,8.6,0.9940381508247642
4ba629a2f964a5203b3839e3,Shawati Al Khaleej (شواطئ الخليج),26.2894,50.191997,Middle Eastern Restaurant,8.7,0.9896043386230132
6237587278286d23dcf58858,Ninar | نينار,26.288443,50.188767,Lebanese Restaurant,8.1,0.9848448791974048
51648ba6e4b068ba2d9f6cb0,ليتل سيزرز,26.289031,50.191858,Pizzeria,8.0,0.9638030585789256
609b04c8478c9011320eca62,AlRomansiah (مطعم الرومانسية),26.283053,50.201987,Middle Eastern Restaurant,9.2,0.9965055547901455
5c2f43c4a30619002c147de9,زاد البحارة,26.285556,50.202389,Seafood Restaurant,8.7,0.9589183502210644
4d5054e44015b1f7073c65cf,Tamimi Markets (أسواق التميمي),26.29477,50.1995,Bakery,9.2,0.9974323968888166
5de92b18a19dea000887d79d,سعف,26.288858,50.188066,Restaurant,7.7,0.9772923685825579
586eae7552a051541b735494,Maestro Pizza,26.285084,50.192008,Pizzeria,7.4,0.9348079307623902
519621ad498effb25f980089,Spice Village (قرية البهارات),26.28491,50.187981,Indian Restaurant,7.4,0.962901266266705
4e22c1cec65b2b5e35544b26,sea Foods Restaurant (مطعم ثمار البحر),26.290124,50.193519,Seafood Restaurant,8.0,0.9780689119625255
57459247498e61bcc94c7cb9,Al Gidr Al Khaliji (الجدر الخليجي),26.291255,50.20237,Theme Restaurant,8.6,0.9735349006149723
4c0b7f2d340720a1ea338893,SD's Barbeq Je Burger,26.288802,50.192567,Burger Joint,7.6,0.9763905762703373
5062e9d7e4b05099c9236b49,Sama Deeraty (سماء ديرتي),26.297298,50.193583,Middle Eastern Restaurant,8.5,0.9813629588807755
52ebeaba498ebaf882d13380,Baskin Robbins (باسكن روبنز),26.294678,50.199642,Ice Cream Parlor,8.5,0.951616337470723
520f9af111d2a574830fe47d,معجنات و شاورما اللذيذة,26.296298,50.19178,American Restaurant,8.3,0.9938377525331596
53d56626498e2d92dfba6de8,McDonald's,26.291257,50.19027,Fast Food Restaurant,7.7,0.9418594456482259
518360c3498eff622d323476,Hashim Resturant (مطعم هاشم),26.288894,50.192425,Falafel Restaurant,7.5,0.9761025037261557
606e66ba12f1482e90b5c7c0,Baby Tais,26.294689,50.196968,Restaurant,8.1,0.9810122618704675
582ba350d1c8fe7d667ab5c9,بحري ونثري,26.283058,50.19372,Seafood Restaurant,7.3,0.9551608822534788
57e017ef498ee572b40475dd,Koshari Station (كشري ستيشن),26.295604,50.189896,Egyptian Restaurant,7.9,0.960220939116494
5fb699c7ab3ef40ae35f783d,حارة ورد,26.281726,50.197316,Restaurant,7.6,0.9742362946355883
63b4c2b2dbf4d836a498d586,Rokn Warda (ركن وردة),26.292376,50.184731,Egyptian Restaurant,7.6,0.9774426673012613
58871ff084c4ed1e5a644d39,مطعم ليالي زمان,26.283429,50.195984,Restaurant,7.1,0.9743740684610663
4d38b5deb5abb1f7755ae098,برجر كنج,26.294553,50.198022,Burger Joint,7.4,0.962199872246089
4e249ece62e1964dbb86b574,Sag Lebnani (الصاج اللبناني),26.291173,50.197729,Middle Eastern Restaurant,7.2,0.972908655953708
626147d18b56135b671af02d,Om Ali (ام علي),26.282099,50.20179,Egyptian Restaurant,7.1,0.9741235705965606
501718fce4b0daed3678c609,مظبية,26.290973,50.197132,Middle Eastern Restaurant,6.9,0.930536942172568
4c07f3ecffb8c9b6067b6761,Marhaba Restaurant,26.288809,50.198939,Asian Restaurant,6.9,0.9497877030598314
50d7299ce4b02521672e7fc0,KFC (كنتاكي),26.283676,50.197099,Fried Chicken Joint,6.6,0.9785448579050864
530cbabc498e4284af2ba860,كويك ميل,26.289833,50.194008,Fried Chicken Joint,6.5,0.9657444170288448
4ea971f029c2fa4821c76cd5,القرية الصينية,26.284136,50.196388,Chinese Restaurant,6.4,0.9679362733432697
4ed359456c2510ace45fa3e6,Mishwar,26.291035,50.197352,Middle Eastern Restaurant,6.5,0.9594318708433011
5dff34fd2cf03a00074a1040,مضغوط حاشيكم,26.282762,50.19067,Restaurant,No rating,0.9813003344146491
515ef514e4b042876abdc9ba,Oroba Resturant (مطعم العروبة),26.288158,50.207785,Fried Chicken Joint,8.6,0.9961924324595133
511946d0e4b0e64d3aa68248,Abu Hilal Restaurants (مطاعم ابو هلال),26.286197,50.212784,Middle Eastern Restaurant,8.8,0.9912576245287509
5124a034e4b07e332c2c2e03,مطعم شواية الخليج,26.28965,50.209931,Middle Eastern Restaurant,9.1,0.993061209153192
4cbf548397bc721e57e18467,Bikki (مطعم بكي),26.287118,50.211834,Indian Restaurant,8.6,0.9963803058578926
4c2ed625452620a1c3a21c0f,Al Quds Restaurant,26.283555,50.212297,Middle Eastern Restaurant,8.3,0.9762778522313097
4e92c413b8032b150ae5f5b0,Al Banoosh (مطعم البانوش),26.291644,50.207166,Seafood Restaurant,8.9,0.9879635776105009
4df658651f6e818dae09f261,Waha Al Rehab Restaurant (مطعم واحة الرحاب),26.288733,50.214656,Kebab Restaurant,8.8,0.9950276173895618
4bbf17f2f353d13ad3037e10,Phuket Restaurant,26.280439,50.213999,Thai Restaurant,8.5,0.976115028619381
5d45fc2468b7bc000878cb89,The Cheesecake Factory (ذي تشيز كيك فاكتوري),26.282918,50.219898,American Restaurant,9.4,0.9954785135456721
529220df498eecb6d98251af,باسكن روبنز,26.285934,50.211024,Ice Cream Parlor,7.8,0.975939680114227
4d4c0573a33fb1f7c1bdb980,Al-Marsah Sea Food (المرساة للوجبات البحرية),26.288428,50.21686,Seafood Restaurant,8.7,0.9888403201362709
4b9a319ff964a520d0a335e3,La Gondola (جاندولا),26.288215,50.218214,Italian Restaurant,8.9,0.9899550356333212
4f383812e4b0d9574ddb7370,Tamimi Markets (أسواق التميمي),26.289045,50.219058,Advertising Agency,9.3,0.9972194737039867
571f91ae498e7f5cf3eb92cf,Pattis France (باتي فرانس),26.288492,50.219439,Bakery,9.2,0.9928482859683622
4e69087152b128a09efc234c,SOCRAT (مطعم سقراط),26.283357,50.21406,Burger Joint,8.1,0.9828784709610351
56f6cd2f498e48d71f8f6c89,Heny Brosted (بروستد هني),26.287182,50.214178,Fried Chicken Joint,8.1,0.9662579376510815
5d6a57043b14a00007e25847,P.F. Chang’s (بي أف تشانغز),26.283731,50.219625,Chinese Restaurant,8.9,0.9952280156811664
4ea1474b7ee52a35dc62c77e,مطعم الفرّوج المشوي,26.288672,50.215144,Middle Eastern Restaurant,8.3,0.9812251850552974
5d45fb97da59890008234a86,Burger Boutique (برجر بوتيك),26.283317,50.220383,Burger Joint,9.0,0.9906940043336131
57c802eb498ee24fbfc37d65,حدائق دمشق,26.289759,50.210906,Restaurant,8.1,0.9862852419183127
4be55784d4f7c9b678432520,Jarir Bookstore (مكتبة جرير),26.290704,50.219095,American Restaurant,9.1,0.9979960170839544
5a58cf676cf01a6b3cddebdc,Shajarat Aldurr,26.295223,50.207112,Egyptian Restaurant,9.1,0.9936624040280057
5d6a5785ca176300088d37ea,Texas Roadhouse (تكساس رود هاوس),26.283563,50.220082,Steakhouse,8.7,0.9860848436267081
602ea3181b4c3d0637904335,Nozomi (نوزومي),26.281932,50.221997,Japanese Restaurant,9.1,0.9892912162923811
63daa74668fcc45fd6ca11a5,Mama Noura (ماما نوره),26.292126,50.220353,Shawarma Restaurant,9.2,0.9992109317268071
61a911b857a7ea45c07d8a67,Belgravian (بلجرافيان),26.281752,50.222159,Brasserie,9.0,0.9909319773048935
56549867498eb5b6954f1a0e,Al Ennabi Grill (مشاوي العنابي),26.295292,50.214883,Middle Eastern Restaurant,8.7,0.9653937200185368
4f40dd09e4b0def9940197ec,Cafe De Paris,26.278431,50.218478,Restaurant,8.4,0.9850202277025588
618fedb74f66381d0e708107,Maceo (ماسيو),26.282036,50.222206,Italian Restaurant,8.7,0.9936248293483299
4c0a1882a1b32d7f97cb98f0,McDonald's (ماكدونالدز),26.28599,50.220272,Burger Joint,8.3,0.9970316003056074
506881b3e4b08b322135905c,Thabbaq (طباق),26.284754,50.213044,Indian Restaurant,7.6,0.9749001139765283
527b6f6711d23e15ec7dcc9e,مطعم راعيها للأسماك,26.295684,50.206873,Seafood Restaurant,8.3,0.9709672975037887
4da6bd644df0260c3e986b34,JINGOGAI (جينقوقاي),26.283674,50.208725,Korean Restaurant,7.3,0.9782693102541301
5db70c5528f17a00087d31b3,Buffalo Wild Wings (بافالو وايلد وينجز),26.283317,50.220383,Wings Joint,8.2,0.9896794879823649
621ec8ed3a800634accb92df,Golden Juice (عصيرات الذهبي),26.296755,50.208906,Shawarma Restaurant,8.3,0.9952029658947158
5a0f2b47e65d0c54653c9e16,مطعم الريف,26.286981,50.213581,Middle Eastern Restaurant,7.6,0.9740734710236595
62dd8733e88f9b25832ce75d,Alawlen Breakfast (فطور الأولين),26.294768,50.217422,Yemeni Restaurant,8.3,0.9765033003093648
4d3983860edc594130768dec,Jollibee,26.280486,50.214989,Fast Food Restaurant,7.7,0.994727019952155
5c9cb45d0868a2002c7354b7,Mama Rabab Seafood,26.295261,50.214773,Seafood Restaurant,8.2,0.9768790471061234
621afcb11416cc05b764f828,Mangata Lounge (مانجاتا لاونج),26.28179,50.221125,Mediterranean Restaurant,8.1,0.9738981225185055
5b3df4f98c812a002c39644a,Chef Culture (شيف كالتشر),26.288199,50.217569,Middle Eastern Restaurant,8.2,0.946694054433186
60449ea0bc35590bd3e88098,BOGA Superfoods (بوقا),26.295774,50.220881,Sandwich Spot,8.8,0.9903558322165303
62457a445eca7f11a0ce1e43,Mismar Restaurant (مطعم مسمار),26.296494,50.219564,Middle Eastern Restaurant,8.9,0.9668340827394446
5478c5b6498ea3fb990ff091,Broasted Bawanland (بروستد بوان الارض),26.285356,50.216721,Fried Chicken Joint,8.1,0.9491739832917925
4d3abe09beb7b1f73063ec71,Hardee's (هارديز),26.286096,50.218887,Burger Joint,7.7,0.9913327738881026
5620c917498efb955eb5677e,Puncak Restaurant,26.286626,50.211727,Indonesian Restaurant,8.1,0.961886749915457
61a27f1059d52568be3b01da,Saladonia (سالادونيا),26.286365,50.217779,Salad Restaurant,7.4,0.9752883856665122
51a0ff90498e1473bb42667c,Sameer Amees (سمير اميس),26.287365,50.21295,Middle Eastern Restaurant,7.5,0.949549730088551
4e5ba20ad164da2b277e93b5,مطعم الوزان,26.293157,50.214912,Fried Chicken Joint,7.5,0.9758019062887489
4e6fa4c2d4c06eaf9c46c370,Copper Chandni (كوبر شندني),26.284131,50.220346,Indian Restaurant,7.0,0.9836550143410028
59d535111de76544c1090481,The Garage Burger and Cafe,26.296156,50.218669,Burger Joint,9.1,0.9970360937548403
512f430ee4b0b6aec0d9892a,Classic Restaurant,26.282556,50.212145,Indian Restaurant,6.9,0.966458335942686
4d1250d5ffa1224ba55898ad,كودو,26.290167,50.219885,Fast Food Restaurant,6.6,0.984281259002267
60df8a2658791a0f264e2be1,مطعم مصنع كعكة الجبن,26.282523,50.219389,American Restaurant,No rating,0.9225836349745118
63ad579a9451ea3239973936,Arya (اريا),26.296706,50.091905,Armenian Restaurant,7.3,0.989657815191282
4d4eab4f8af6721e3caf1288,Hobby Farm,26.296712,50.091974,American Restaurant,7.0,0.9911281611234823
61ba3c8a7ef09b72a4ffd73c,eat’sy (ايتسي),26.298251,50.107777,Modern European Restaurant,7.4,0.8778925619834711
4eea59f6775b562a3a052ab6,مشوار,26.304459,50.103922,Mediterranean Restaurant,No rating,0.11074380165289256
5224942d11d2b15869e81fec,The Sushi Club,26.304546,50.109988,Sushi Restaurant,No rating,0.42396694214876035
517cf94ee4b03bbd7e17af63,Core Area Dining,26.305183,50.114253,Diner,No rating,0.8456611570247934
50c5a68be4b0fb7144f4630f,Dhahran Staple Restaurant,26.305537,50.114455,Burger Joint,No rating,0.10661157024793388
4d5268f8d7eaa143fbdd7d0f,Dhahran Golf Club,26.302242,50.120937,American Restaurant,8.8,0.9679752066115702
549eb806498ed095cd4d241b,باسكن روبنز,26.309062,50.128656,Ice Cream Parlor,8.5,0.8429752066115702
60fffdf6e4c4366244617b33,Subway (صب واي),26.305221,50.129076,Deli,8.3,0.9332644628099174
4e173cca2271b0e971f0155d,Najjar Café (نجار كافيه),26.3043,50.129791,Lebanese Restaurant,7.5,0.9119834710743802
5deccfc5bed40a0007302c62,Greens (جرينز),26.309047,50.128482,Salad Restaurant,7.5,0.8648760330578512
5c875078f62e09002ca1e47a,Paul,26.309094,50.129002,French Restaurant,7.5,0.9601239669421487
4bb49541f038a593fe29daf0,Dhahran Dining Hall (قاعة الطعام بالظهران),26.30794,50.128537,Food Court,7.3,0.9929752066115702
5cc546871fa763002c0cd344,Chili’s (تشيليز),26.302442,50.121062,American Restaurant,6.7,0.6167355371900827
5472f809498e7269b2946dec,Costa (كوستا ارامكو),26.309062,50.128656,Coffee Shop,7.2,0.8533057851239669
5da8876da0f6b300086287f7,Açaí Kitchen,26.304207,50.129225,Restaurant,6.9,0.8826446280991735
56f24b38cd10a8c1dc17a776,Del Monte Cafe (Del Monte Café),26.309062,50.128656,Salad Restaurant,6.5,0.4090909090909091
5b8cf92ee1f228002c0ef68f,Fushi Sushi ((سوشي فوشي)),26.309094,50.129002,Sushi Restaurant,6.1,0.5690082644628099
4c69bacac946e21e76f8ea8e,هرفي,26.3048,50.125346,Fast Food Restaurant,No rating,0.5646694214876034
53e4af49498e5191d048330e,Gulf Course Aramco,26.30531,50.12728,Restaurant,No rating,0.868595041322314
5bfd03a88194fc002c24d7a3,Dhahran Dining Out Side BBQ,26.307845,50.126317,BBQ Joint,No rating,0.34173553719008265
5da84347c9a01d000813809b,Under500,26.303054,50.128997,Salad Restaurant,No rating,0.7667355371900827
5c2ce22f6dcf04002ca37da2,Popeyes Louisiana Kitchen,26.303776,50.129338,Fried Chicken Joint,No rating,0.6706611570247933
5da88702ad414e0007d4ed70,Acia,26.303285,50.129468,Asian Restaurant,No rating,0.7198347107438017
5cb752a6ff0306002c0ea9e0,"Tandoori House , Aramco Camp",26.3043,50.129791,Chinese Restaurant,No rating,0.8479338842975207
5fd87705cecb1e01d6027089,Habak (حبق),26.304193,50.130233,Lebanese Restaurant,No rating,0.5237603305785123
da2cd3c1ff2842c125d12805,PAUL Bakery & Restaurant,26.308125,50.128725,French Restaurant,No rating,0.38099173553719007
54c9f77b498eca053002501c,Jaafari University of Homosexuality (Tandoori Brothel),26.304408,50.130295,Kosher Restaurant,No rating,0.3921487603305785
5c87b1219e0d54002cbdbdef,Operation Falafel,26.308572,50.129494,Falafel Restaurant,No rating,0.9394628099173554
5c87780a1f7440002c32f8c4,Operation: Falafel,26.309202,50.129505,Falafel Restaurant,No rating,0.881198347107438
51778177e4b0438b3f66db62,Nesma Catering,26.304917,50.13152,Diner,No rating,0.023140495867768594
5e37e359922ecd0007ad85a6,Leen Cusine,26.314553,50.120709,BBQ Joint,No rating,0.8793388429752066
50e901c5e4b0a5a073c3c105,كرسبي كريم,26.312258,50.12805,Office,No rating,0.9607438016528925
63a0452ba316af39e4d39d81,Freshhouse (فريش هاوس),26.31157,50.136342,Vegan and Vegetarian Restaurant,8.3,0.9873966942148761
58da14559dc8d03da1d766d6,Pin,26.31102,50.132454,Burger Joint,8.2,0.8876033057851239
54798e34498eb17c04fbd5ca,Costa Cafe (كوستا كوفي),26.309297,50.131489,Coffee Shop,6.5,0.9134297520661157
54dc4dc4498eb547d60d615f,Texas Roadhouse,26.305356,50.148714,American Restaurant,6.6,0.7252078307951922
5ffff654597e5603470acee0,Greens (جرينز),26.311985,50.130132,Salad Restaurant,6.4,0.9820247933884297
5f173487438802647928785b,I Wish Burger At Aramco,26.302252,50.137775,Burger Joint,No rating,0.7836776859504132
53c2a8fe498edb916873aa7e,فطوري البروحي,26.3025,50.139128,American Restaurant,No rating,0.46756198347107436
53dd4067498e62f1e99f6cf8,سري دي موفي,26.3025,50.139128,American Restaurant,No rating,0.8849173553719009
0158da12adf84e007a9a83ef,Gulf Chef Restaurant,26.305761,50.141342,Restaurant,No rating,0.7208677685950413
5c8a8d1a12c8f0002cca54eb,مطابخ الدانة,26.309107,50.138689,Buffet,No rating,0.053925619834710746
56de60e0498ed8503680a3bf,Staff Lounge,26.311592,50.13508,Comfort Food Restaurant,No rating,0.5789256198347107
4f4ca32ae4b05dbcea5c3f32,KFUPM Student Restaurant,26.310345,50.144744,Middle Eastern Restaurant,5.6,0.9919421487603306
4d18bba8302da1cd9ce6c493,Students Restaurant,26.31036,50.144208,Restaurant,5.6,0.9440082644628099
617a6f581d797c71781f7ee8,N,26.312107,50.139518,Noodle Restaurant,No rating,0.5142561983471075
4d8080171013236ae10b8935,The Fourm (Ramada),26.312369,50.141611,Diner,No rating,0.43739669421487604
4d3d435aaf8ca143e4b109f7,Engineering Snack Bar,26.311939,50.130321,Restaurant,No rating,0.5183884297520661
52d25247498e7f75d2303bb6,Expec Basement,26.312155,50.130102,Diner,No rating,0.8663223140495868
5c3102d6cf72a0002c64dcbe,Lab Four,26.300069,50.148451,Restaurant,No rating,0.9216942148760331
51035b96e4b00c778ead1740,إستراحة خفايف تايم,26.313061,50.141843,Construction,No rating,0.4409090909090909
51ab0b12498ec0f9f996a769,Samso cafteria,26.313061,50.141843,Restaurant,No rating,0.8911157024793388
0b58c5280f19489323e0f0f0,La Casa Pasta,26.30477,50.14908,Restaurant,No rating,0.5986458646071662
4f51e74de4b0b589376d778b,هارديز,26.302146,50.149854,Burger Joint,No rating,0.48379282142598323
511609dfe4b0590ac8e5152b,هارديز,26.304178,50.169181,Burger Joint,7.3,0.9477837201437858
50896984e4b00b147d7a983c,تشيليز,26.304797,50.16788,Mexican Restaurant,7.2,0.8700291830012149
4de7c63b2271b9ccf4e5463a,تشيليز,26.305811,50.168204,Mexican Restaurant,6.8,0.30877619268295736
59c8b9f5be70784687e8d7f4,كوستا كوفي,26.303553,50.168738,Coffee Shop,6.9,0.9571523402762991
58511bd13cccc66e289ce5e1,ماضينا,26.30178,50.164184,Arepa Restaurant,No rating,0.5996668378402075
4f4fcdcde4b0f03ee7645466,Grill,26.298462,50.164348,Asian Restaurant,No rating,0.9047607119149309
4f914ed7e4b0935b8233340b,Pancake House,26.303137,50.167371,Restaurant,No rating,0.1613957741010258
58050294d67c0bfe7761b91d,شاورما قايز,26.313454,50.148061,Middle Eastern Restaurant,No rating,0.16074663795513133
52235429498ec6d1f8d5169a,باسكن روبنز,26.313961,50.147869,Ice Cream Parlor,No rating,0.12007081258476288
57e25dbd498ef4c3cefb17d4,SupWay In Kfupm Mall,26.314099,50.147773,Restaurant,No rating,0.7945503297340387
523035bb11d2435ba408cfba,Fatoosh KFUPM Mall,26.314099,50.147773,Middle Eastern Restaurant,No rating,0.5193751099976188
5405c3a9498eeb9671ec9ea1,"charcoal, KFUPM mall",26.314083,50.147836,Hot Dog Joint,No rating,0.5155446046814987
4e3da724ae6045423668a926,تشيليز,26.305181,50.168428,American Restaurant,No rating,0.864280257010809
56d696bd498eaccec997bf1e,Rewaf Restaurant (مطعم الرواف),26.314053,50.147726,Middle Eastern Restaurant,No rating,0.5829718509622851
5c568538829b0c002c67cec1,الرواق الشعبي,26.314114,50.14771,Middle Eastern Restaurant,No rating,0.05844108786350978
5831b9cedc33297bf05d26f3,Jasmi's,26.314083,50.1476,Fast Food Restaurant,No rating,0.8740591968362097
4cbc1acc90c9a143f8eb98d6,Burger Joint - Mall Of Dhahran (برجر جوينت),26.298559,50.168456,Burger Joint,No rating,0.8987612880600193
4d1866dce190721e1da22121,Burger Joint,26.303677,50.169178,Burger Joint,No rating,0.6279355218496763
618b98c05ca83077f640dbea,Low Calories (لو كالوريز),26.300978,50.171579,Restaurant,8.9,0.9978958179381521
58787ec676f2ca582724ceb3,Lubda Palace (قصر لبدة),26.304052,50.174748,Middle Eastern Restaurant,9.2,0.9941759246502424
6399db949256f32d49d472ca,BLU Sea Bites (بلو سي بايتس),26.303767,50.174202,Seafood Restaurant,8.8,0.9797472476547138
63a3671e8b0f5f0e40c12687,مشويات الرافدين,26.299098,50.175283,Kebab Restaurant,9.0,0.9942635989028193
61cb249d5c9f6c57e4040ca2,Ray’s Pizza (ريز),26.302541,50.176953,Pizzeria,8.8,0.9876379303866435
614e08c358bb2536d5771f15,Kokoro (كوكورو),26.305123,50.178356,Japanese Curry Restaurant,9.2,0.9961548577798375
5a6d81b497cf5a7b3862969c,Burger Site (برجر سايت),26.299244,50.175834,Burger Joint,8.7,0.9898423115942937
62c49215c5d050636806ff0d,Stakt (ستاكت),26.300008,50.174213,Burger Joint,8.3,0.9915081223932566
5dad6a1951d9b400085c74b9,Fit House (فت هاوس),26.299473,50.174416,Health Food Store,8.2,0.9937500782805827
5b09151e005ac1002ceb5e11,Aloft Hotel Restaurant,26.304773,50.174145,Restaurant,8.1,0.9860472689470322
580b18ebd67c5d194da7644c,SALT (سولت),26.307406,50.178473,Burger Joint,9.0,0.9311005623677058
5b6f008dd69ed0002c0331ab,REGAL BURGER (ريجل برجر),26.302366,50.178143,Burger Joint,8.5,0.9818764795030123
5da43e009850d80007bc6cf3,Zad Alsultan Resturant (مائدة زاد السلطان),26.298166,50.179838,Middle Eastern Restaurant,9.1,0.9965431294698213
54e07a51498eccd401c4ba7e,IKEA Restaurant & Cafe,26.30956,50.167927,Scandinavian Restaurant,8.9,0.9984343883468394
60c5fc982506237cecafa44d,The Peak (ذا بيك),26.307662,50.180539,Burger Joint,9.0,0.9968186771207775
5713d40f498eea629c0ee8b3,10° Sweets & Bakery,26.299278,50.178305,Bakery,8.5,0.9803860172092033
5f3bf2474e3667566477c46e,Chick N Dip,26.30394,50.170939,Fried Chicken Joint,7.8,0.9673476033616814
645bb94a96adb8577841b66a,Volo Burger,26.298034,50.178146,Burger Joint,8.5,0.9736225748675492
5358d5e5498e5ab97a47bfab,تشيليز (ردهة مطاعم مجمع الظهران),26.304122,50.169474,American Restaurant,7.9,0.9963677809646673
54080744498e6df8ee63279f,Azal - at Dahran Mall,26.304307,50.169898,Middle Eastern Restaurant,7.9,0.9917711451509876
610997c37022351b374f96b8,Section-B (سِكشن-بي),26.306608,50.182674,Burger Joint,9.1,0.9914955975000314
60d3cf1d158b3f247b4a5049,Hamburgini (همبرغيني),26.299777,50.174575,Burger Joint,7.9,0.9641412306960083
6299dc583fac197a2d64cfac,Fish Face (فش فيس),26.307581,50.180853,Poke Restaurant,8.8,0.9340689620620984
5b8acd3ba795bd00370adf7c,كبدة وشاورما,26.298221,50.180767,Sandwich Spot,8.7,0.9641662804824589
6307bad272ad7b7920a9e2d8,SMOG (سموج),26.304438,50.178447,Burger Joint,8.1,0.9687629162961385
623605b650b2ed4a70ab95cc,IL FIGO (إليفقو),26.306458,50.183677,Italian Restaurant,9.1,0.9890908180007766
5ac472e8029a5521b50cf3b0,Oak Smokehouse (اوك سموك هاوس),26.307577,50.180612,BBQ Joint,8.5,0.9621622975664132
4d9b42069298b1f784725338,تشيليز,26.304122,50.169474,Fried Chicken Joint,7.7,0.974662141005248
5c458603b5cb76002c982fa0,C House Milano (سي هاوس ميلانو),26.307674,50.171198,Italian Restaurant,7.9,0.3494445209854586
6182cbbf9d51dd1f2ecf3241,El Tacoria (ال تاكوريا),26.300482,50.183302,Mexican Restaurant,8.3,0.9837426885935797
5e18ce5eda3d2900088f3b96,Narang,26.299051,50.18114,Middle Eastern Restaurant,8.0,0.9626507684021993
636ab52256622e385a03141d,LMK (إل ام كاي),26.307506,50.180527,Burger Joint,8.0,0.9935496799889781
6043de3bdbc7f6682a640c39,Hatabgy (حطبجي),26.298596,50.176641,Shawarma Restaurant,7.6,0.9859971693741311
62211305578b3f22d1563613,Bosnian Cevapi - Bosnian Kebab House,26.299429,50.174187,Bosnian Restaurant,7.4,0.3465387457571924
4bf943aec07c9c7449ffbbef,Krispy Kreme (كرسبي كريم),26.309626,50.171926,Café,7.6,0.9783820342931576
4d75f916c3efa09036634739,Applebee's Neighborhood Grill & Restaurant,26.310037,50.16857,Home Improvement Service,7.5,0.9831540186119914
5be97374ecb3ed00323d59c0,Fatté w Snobar (فتّة و صنوبر),26.304688,50.18019,Middle Eastern Restaurant,7.4,0.9665334853020378
4ebd69da0aaf88633bc4912c,Casa Pasta (كازاباستا),26.305998,50.170044,Italian Restaurant,8.2,0.9625004696834959
5c6840d6237dee002ca1e754,Scale (سكيل),26.299205,50.181453,Health Food Store,7.4,0.9746120414323468
53d1a5bd498ecffea0fb78e9,Bamboo Kitchen,26.307595,50.169625,Asian Restaurant,7.1,0.860547838829674
54a50dcb498ebcd88aa56917,MADO (مادو),26.307195,50.169375,Bakery,7.0,0.09435002066607383
57f280f2498e15fd3bd8086a,The Cuts (ذي كاتس),26.305548,50.194192,New American Restaurant,8.7,0.9916458962187348
591ef7ed59fe5c040141ef47,Rolls Rice (رولز رايس),26.305563,50.193893,Sushi Restaurant,8.3,0.9628386418005787
5a05811e58aa7f3b3d5fa67c,Bath & Body Works,26.3046,50.198809,Donut Shop,9.0,0.9698651068999636
4c43599e429a0f47283c471e,McDonald's (ماكدونالدز),26.305166,50.19624,Burger Joint,8.4,0.9989103342894002
4f447c3ae4b025d84350ec50,Savor Bakery (سيڤر بيكري),26.304341,50.200353,Bakery,9.3,0.9863228165979885
59d13ba65161135b1533e05e,Golden Juice (عصيرات الذهبي),26.299162,50.198465,Shawarma Restaurant,8.8,0.9956288122643755
5b967ca9b6b04b002c24feed,&SALAD (اند سالد),26.303113,50.201383,Salad Restaurant,9.4,0.9971067496649592
5e17859e1cce80000839630d,مندي الأحساء,26.299976,50.198429,Middle Eastern Restaurant,8.6,0.9920341679087186
63fa4517e7e81b0b49773d66,TÁKE (تيك),26.300647,50.197996,Burger Joint,8.3,0.9721070627872898
57ee6118498e17ca7f076a46,Parker's (باركرز),26.305058,50.195738,American Restaurant,9.1,0.9970942247717338
6048ac05fd3c1f1aa33a8e33,Pep & Co. (پيپ اند كو),26.30355,50.205065,Salad Restaurant,9.1,0.9806114652872584
58406f9c561ded1024e01b25,Zümrüt (زمرُت),26.300473,50.189267,Turkish Restaurant,7.5,0.9786450570508887
5bd99371911fc4002cbb5201,Shrimpail (شرمبيل),26.30376,50.203928,Seafood Restaurant,8.7,0.9772046943299808
62a365a7ab228369f7cbef4e,شاورما سنع,26.298993,50.198599,Shawarma Restaurant,8.0,0.9871369346576321
5a787e2d6fd6262596a30d79,Mizo Eatery (ميزو),26.303745,50.203755,Italian Restaurant,8.4,0.9682243458874513
4d25fb0af9406dcb98d1908d,Tamimi Market,26.309386,50.191414,Restaurant,7.8,0.9741736701694618
4ebc3fd4e5faed97be82c70b,Shawarmer (شاورمر),26.304338,50.197992,Shawarma Restaurant,7.6,0.9618742250222316
592dc10bd41bb74f6e42af1e,Five Guys (فايف جايز),26.303868,50.204195,Burger Joint,8.1,0.9929234353277139
5fa93dd680df8d02ae9348fa,Ghosn Alromman (غصن الرمان المشوي),26.295171,50.201401,Kebab Restaurant,7.7,0.9748875890833031
4bd737e435aad13ac6698ef3,Soul Kitchen (سول كيتشن),26.302828,50.208717,Sushi Restaurant,8.4,0.9897045377688155
508e8cd8e4b066b5890783f3,Madeleine (مادلين),26.306362,50.210033,Bakery,9.1,0.9789581793815207
5228da8c11d28f5c52487299,Oriental Flavors (نكهات الشرق),26.302124,50.211145,Indian Restaurant,8.4,0.9944765220876493
62b61dccbc87e166783de850,Utti (اتي),26.300245,50.208539,Burger Joint,8.3,0.9779436630302727
4df4c7aec65bf55ee53034a2,Manoosha Al Reef (منؤشة الريف),26.301421,50.21546,Bakery,8.7,0.9797096729750379
646d2be4c16c43320faed675,Il Grotta,26.299861,50.214927,Italian Restaurant,8.5,0.9939630014654125
4c6eff23df6b8cfa6bdbb34d,Al Fawar (الفوار),26.297828,50.216756,Seafood Restaurant,8.8,0.9937626031738079
59ad9d1c86bc494d39e9519d,Specialty Bean Cafe (محمصة سبيشلتي بين),26.300319,50.219761,Coffee Shop,9.3,0.9930236344735162
5bf51b2b8a6f17002c4b8fb7,The Pantry (ذا بانتري),26.308839,50.214754,Modern European Restaurant,8.6,0.9840558109242119
4bcef7dcc564ef3bdcffeef0,Maxim Restaurant (مطعم مكسيم),26.302751,50.20856,Sandwich Spot,7.5,0.9844315577209705
525c207f498e33236b6c6ae5,Belad Al-Sham (مشویات بلاد الشام),26.297121,50.216115,Middle Eastern Restaurant,8.7,0.9955536629050238
61df1957f588bc30dc8ce0fd,Freshhouse (فريش هاوس),26.309071,50.219055,Salad Restaurant,9.5,0.9991107325810048
61fc033797335e31c4a4bb31,OffTheEarth (أوف ذا إيرث),26.31171,50.217244,Salad Restaurant,9.5,0.9995240540574392
5a4009b2da2e0062768f9e4a,Bawabt Dimashk (بوابة دمشق),26.297043,50.21525,Middle Eastern Restaurant,8.4,0.980198143810824
4fe2e914e4b01e4929d26295,Rolando's Pizzeria (رولاندو بيزيريا),26.296648,50.219012,Pizzeria,9.1,0.9927355619293345
62a392f46c162743a878093e,Ayyash (عيّاش),26.296543,50.218698,Shawarma Restaurant,8.8,0.9957540611966283
6228e6cbac70ac1f18e044ae,Neon Sushi (نيون سوشي),26.309064,50.213558,Sushi Restaurant,8.1,0.989416465224634
5a1dd4cfda70801829904fba,Century Cuisine (سينشري كوزين),26.296909,50.219593,Restaurant,8.7,0.9862351423454115
557ddb99498ec5a5b12bc682,Al Kabsh (مطعم الكبش),26.296755,50.218571,Indian Restaurant,8.0,0.9916083215390589
53d2e73c498e891029547b58,McDonald's (ماكدونالدز),26.294072,50.207591,Fast Food Restaurant,7.7,0.9955912375846996
605b89ee4807076cc7b28925,PICKUP (بيك أب),26.307279,50.224057,Burger Joint,9.6,0.9990731579013289
62112b02e2bc2809c86a7d68,FATTO (فاتّو),26.307217,50.225003,Italian Restaurant,9.1,0.9877005548527699
613b1c1e4e1b0b7f20836a71,Burger Site (برجر سايت),26.307529,50.223893,Burger Joint,9.4,0.992622837890307
56d21fb8cd10b9cf5fd5cf08,Firegrill (فاير جريل),26.298832,50.223278,Mexican Restaurant,8.9,0.9887275960972433
61c8baf7bc7e50538ec05392,Lumee (لومي),26.307495,50.224654,Middle Eastern Restaurant,9.0,0.9888778948159467
5d5fee7bc5e2cf0008166480,Mugalat Al Freej (مقلط الفريج),26.305793,50.22753,Middle Eastern Restaurant,8.4,0.9916333713255094
613b1cbacdc38d4c6ed61e6b,Addict (أدكت),26.307566,50.223901,Steakhouse,8.8,0.9880637767563032
5f16b6f2938b7c3b5e28dca4,Tosto (توستو),26.30745,50.224736,Sandwich Spot,8.5,0.9674478025074836
52863cc5498efbed7a739db3,مطعم بياتو,26.298602,50.223751,Restaurant,8.4,0.8902318357736
623cc368d068fc78ba652c08,Arya (اريا),26.300121,50.220319,American Restaurant,8.5,0.9847572049448279
63b976024ace10559687a396,Steak House (ستيك هاوس),26.298911,50.222909,Steakhouse,8.2,0.9801605691311481
5dfcb079e60b0b00083d33f9,SHRIMP RUSH (شرمب رش),26.309568,50.222647,Seafood Restaurant,8.8,0.9872621835898849
5e6fd16a148e6200077f93c6,Raising Cane's,26.305268,50.223538,Fried Chicken Joint,8.1,0.9787327313034656
59460433b6b04b6c8b5f0827,GO-YA! (غويا),26.310797,50.223505,Burger Joint,8.9,0.9919089189764657
4f3f7a93e4b0bc95af325f2d,Fusion,26.301337,50.224096,Seafood Restaurant,7.8,0.9415463233175937
62092441b5711c45ff021d8b,Vasto,26.305015,50.222701,Pizzeria,8.0,0.9643666787740635
61bb0dcf731a841f1eb62cff,Soul Bowl (سول بول),26.310087,50.223501,Salad Restaurant,8.6,0.9862476672386368
5a16bb993c858d332caa9075,COSMO (كوزمو),26.310797,50.223505,Coffee Shop,8.7,0.9949649929234353
636d620cd1c1490bccceaae7,Ib Burger (آيبي برجر),26.310115,50.224215,Burger Joint,8.5,0.9969063513733546
503b8b3fe4b0c7c1fbe17b6d,Piatto Restaurant (بياتو),26.298724,50.222775,Italian Restaurant,8.1,0.9822772760862214
5194833d498e8ed406129319,Le Cafe De Paris Le Meridien Alkhobar,26.301644,50.224016,Café,7.7,0.9462932578499769
63a49c5a6e2e572a9034d882,ZÖÖBa (زووبا),26.299631,50.223694,Egyptian Restaurant,7.8,0.97672874838742
58ece42980e1af6f936e56a2,Lascala Urban Eatery,26.309383,50.221987,Restaurant,8.3,0.9956413371576007
58d2adaf24ca6a4eb3257b54,The Garage Burger & Coffee,26.297017,50.219388,Burger Joint,8.4,0.9600330657181148
62db050d9673507063b36399,Sofret Fayzah (سفرة فايزة),26.307707,50.224759,Lebanese Restaurant,7.9,0.9710424468631405
61780c83671da1089c54834c,KŌYŌ (كويو),26.307243,50.22478,Molecular Gastronomy Restaurant,7.8,0.9669092320987963
5f81af7d0349b662d3428cb1,Raftaar (رافتار),26.31347,50.223866,Indian Restaurant,8.4,0.9689758394809684
5aff352c5f68b90039bdcf06,AlGosaibi Tent (خيمة القصيبي),26.30634,50.220307,Middle Eastern Restaurant,7.8,0.9680114227026214
641274674ec46a0fb9d701ee,نكهة الأولين,26.299712,50.214904,Middle Eastern Restaurant,8.1,0.9719066644956852
5c91480347f876002c8361a2,AlEnabi Grill,26.312614,50.229283,BBQ Joint,8.1,0.9453664157513058
4db5b31ff7b121c29f640a0b,Oasis Restaurant - KFMMC,26.321652,50.015791,Restaurant,No rating,0.20557359973057063
58e219dd3f5a5c690780be97,Smoking Area,26.332946,50.085116,Fast Food Restaurant,No rating,0.6474005888052773
4f2fa131e4b040ea0176accf,Al-Midra Dining Hall,26.328832,50.109262,Bar,7.7,0.9996703659749672
510e2155e4b039abc8e208e7,مطعم كان,26.320732,50.110392,Middle Eastern Restaurant,No rating,0.31239669421487604
4d3c46933ec9a35dbb1c4781,Kan Restaurant,26.319489,50.111252,Middle Eastern Restaurant,No rating,0.2409090909090909
587f2db6ac13697aa07f0b09,Somali,26.322503,50.112113,Restaurant,No rating,0.4634297520661157
636f87dc1698612345c5b27f,Freshhouse,26.324066,50.111997,Restaurant,No rating,0.8450413223140496
5c7ce9af3ba767002cccbeb1,Fushi Sushi,26.328817,50.109325,Sushi Restaurant,No rating,0.9387017657921998
544784d0498e1c9f6b6cae38,Sandella'sسانديلاز,26.327604,50.110768,Deli,No rating,0.8768595041322315
540225f7498e30d5fce07212,كرسبي كريم,26.319956,50.115266,Office,No rating,0.981198347107438
56074401498eb66112e7f1fb,T,26.321403,50.116895,Burger Joint,No rating,0.6952479338842975
53706fa7498e45dc3b1e2918,صب واي | Subway مطعم ال مغيدي,26.323511,50.118408,Sandwich Spot,No rating,0.46198347107438015
6249bc2aba4b9f64265c5fab,استراحه مشعل,26.315233,50.127648,Afghan Restaurant,No rating,0.17665289256198347
5ca88da33abcaf00398dc999,McDonald's,26.314114,50.14771,Fast Food Restaurant,7.3,0.5080285320882466
5c36e3680a08ab002c05d534,CPC Snack Bar,26.326041,50.136477,Diner,6.7,0.8668226476038636
50583588e4b0eaaf498b5bdb,DH ITC Dining Hall,26.327873,50.13889,Diner,6.2,0.9693973683393207
52a6c42611d24eadcd37ee46,صب واي,26.314222,50.147741,Deli,6.3,0.8712639632271489
565eaa58498e5876a2a4d9cb,Steal Bus,26.323631,50.138825,American Restaurant,No rating,0.0998416034288199
52602fe411d2b01f566257ba,Foud Court Sait (ساحة المطاعم),26.323938,50.138508,American Restaurant,No rating,0.9440849751017154
52ebf4e5498ec4dbf03b91c8,Subway (صب واي),26.324469,50.133463,Deli,No rating,0.010537190082644627
4ee8e637be7b2085289e7441,Urban Restaurant,26.315425,50.139921,American Restaurant,No rating,0.8971074380165289
21dc60a81dcd4f32237c52e6,Sizzler House,26.314554,50.131878,American Restaurant,No rating,0.6770661157024793
62ef78b4f004567ed4811f71,Dinning Hall,26.328213,50.138211,Diner,No rating,0.7063762384437796
4cc552c5806246884a663b2f,Graffiti,26.317368,50.144727,Sandwich Spot,No rating,0.7759568498752497
52a43659498e1e66f1e61474,برجر كنج,26.314145,50.14782,Burger Joint,5.8,0.2716242377812057
52ea6993498e187a34807f3f,Eleven Stars,26.315154,50.144128,Arcade,No rating,0.28980360895717083
51365737e4b07b9c7ae57325,Khfaif Time,26.313631,50.142816,Sandwich Spot,No rating,0.5559917355371901
5da2e82fc36fe8000891c7a0,شواية الشرقية,26.31497,50.144177,Middle Eastern Restaurant,No rating,0.15299245286925553
5a1fcb0a65cdf8220fa9a84c,Pink House,26.329961,50.137395,Restaurant,No rating,0.5385586947294317
536fcf49498e598478c5d071,canton (كانتون),26.314464,50.144842,Cantonese Restaurant,No rating,0.8802811797956374
4fe237cbe4b0f5d1cc130a93,دجاج كنتاكى,26.324487,50.147167,Fried Chicken Joint,No rating,0.9128094168314475
53fc490d498e5054f695a057,KFUPM Mall,26.313449,50.144754,Comfort Food Restaurant,No rating,0.21153706790347127
524db6a8498ea29940b4117b,Chinese & grill restaurant,26.318356,50.148248,Asian Restaurant,No rating,0.7629745426687234
6158acb6203a3772c6caf8b3,ماك,26.314229,50.147319,Fast Food Restaurant,No rating,0.8841841541312517
5d99a18f0279ac0008d433a5,Pizza Galleria,26.314083,50.1476,Pizzeria,No rating,0.36289379147557277
5497db90498e855d5f8f68d0,مطاعم روابي نجد,26.314083,50.147836,Middle Eastern Restaurant,No rating,0.8806849357613906
57e79d48498eebbe22491d71,Shawarma Guys,26.314099,50.147773,Shawarma Restaurant,No rating,0.7256944084975102
53a80793498eccf76019af91,La Casa Pasta,26.314114,50.14771,Italian Restaurant,No rating,0.8817823237708736
5bd871aa666116002cb4c7a6,Curry N Hurry,26.314099,50.147773,Indian Restaurant,No rating,0.469247253941797
4eeb7a74e3000c69e19856b4,The Specialist (المختص),26.322872,50.158817,Sandwich Spot,8.8,0.9914705477135808
525446c7498e764f985d08e3,Rayiq (شاورما رايق),26.323336,50.161884,Shawarma Restaurant,9.0,0.9984218634536141
632d89e52f5dc66afe26bc7e,Roshaz (‎بخاري روشاز),26.322478,50.157064,Afghan Restaurant,8.1,0.957803634724014
4be4932dcf200f478228123c,Mozon (مزون),26.323584,50.163473,Middle Eastern Restaurant,8.7,0.9979584424042786
53f634e0498ecb81e3ee6b1f,Melts (ميلتز),26.323429,50.162923,Burger Joint,8.4,0.9732092533911149
50c9de03e4b081a53d5c4189,Medar (ميدار),26.325616,50.166719,Seafood Restaurant,9.0,0.9902556330707281
4eb50a70be7bfc284a1ef9de,Saadeddin (سعد الدين),26.32298,50.15932,Bakery,7.9,0.9594569206297516
5d5c69215eae090007629aa4,GOAT (غوت),26.331465,50.161815,Burger Joint,8.9,0.996355256071442
5b734f460a08ab002bc5d4bb,مشويات المعلم الشامي,26.322841,50.158707,Lebanese Restaurant,7.7,0.9567014441201889
5800d0c138faf0b9056c0774,Noodlez (نودلز),26.329975,50.162502,Noodle Restaurant,8.6,0.9663957114765597
5d91c205a1a1e400070e50f2,Alsomali Resturant (المطعم الصومالي),26.333141,50.148495,Restaurant,8.9,0.994885757767126
5c0d4b3a270ee7002c347a07,Oriental Gate (السور الشرقي),26.333465,50.149769,Chinese Restaurant,8.5,0.9651838124915885
619a6abc583b5c0234e78c0e,Streat Hub (ستريت هب),26.331605,50.161772,Burger Joint,8.4,0.9389160957402838
5efdff879024e00008bb13c1,The Sushi Bar (ذا سوشي بار),26.330083,50.162769,Sushi Restaurant,8.3,0.9757893813955236
63dd3436628a181cdcaec407,CHICK-ED (تشيك-اد),26.333136,50.148926,Fried Chicken Joint,8.3,0.9688590270516497
4be73ec8d4f7c9b643a92720,McDonald's (ماكدونالدز),26.332052,50.151085,Burger Joint,8.1,0.9985220625994163
5b64a2e8628c83002c2f42bc,Burgerizzer,26.322407,50.155513,Burger Joint,7.1,0.9358600217933142
5c0beb9f6e4650002c72ebff,Innovation Burger (إينوڤيشن برجر),26.323584,50.163473,Burger Joint,7.6,0.682506481632244
5d56e2203a559e0007a9c785,Planet Zero Health Food,26.317661,50.157765,Restaurant,7.3,0.9468568780451146
5bd6d5b1237dee002cdc2962,Ekbisha (إكبسها),26.322468,50.155733,Restaurant,7.0,0.5193071229067773
4d2b5b90915fa0935c7e160a,Herfy (هرفي),26.324323,50.164933,Fast Food Restaurant,7.4,0.9768038977467717
4ba51415f964a520f6d938e3,مطعم فطوطة,26.325462,50.166642,Middle Eastern Restaurant,7.5,0.9466564797535101
60ce2df03008915c3a5f5daa,Days (دايز),26.322378,50.155641,Burger Joint,6.7,0.9838804624190579
4e8206f46da1b865a442a5ab,Farm Superstore 8 (أسواق المزرعة ٨),26.333357,50.149501,Fast Food Restaurant,7.3,0.9959313821912561
4d1de9a40901721eadc57ca5,دجاج كنتاكى,26.330575,50.163112,Fried Chicken Joint,7.1,0.9826279730965294
61898564fc3b5f3ebbb47b67,Lahza (لحظة),26.323185,50.161273,Middle Eastern Restaurant,6.7,0.9864355406370161
4d7752cd78d5a0930ebf7d72,Burger King (برجر كنج),26.330667,50.163206,Fast Food Restaurant,6.7,0.9832917924374694
4cff9ee121ea6ea88db43d9f,هارديز,26.331035,50.162637,Burger Joint,6.5,0.9267168497388559
50420367e4b01555a64fd98c,القدر الكاتم,26.323661,50.16363,Middle Eastern Restaurant,6.3,0.9549855337483248
61b7935c093c3237d1c1f920,شرمب وشكن,26.322302,50.155626,Seafood Restaurant,No rating,0.08420485715359277
5901c3c966f3cd3ef44f90f7,Captain Chicken,26.322391,50.155576,Restaurant,No rating,0.02734184191079771
5be2f7fb8496ca002c31ed04,Ekbis_ha,26.322177,50.156459,Restaurant,No rating,0.1037186407985872
4efc6144c512b6718a6feef4,مزون,26.321149,50.157852,Middle Eastern Restaurant,No rating,0.8691023409025438
505b4d1be4b0040c9f357a98,Filfilah (فلفلة),26.323138,50.163177,Middle Eastern Restaurant,6.0,0.9453914655377563
51f2f2ea498e0d156ce1e388,حلويات سعد الدين,26.322763,50.157841,Bakery,No rating,0.6067559274057188
5e230f95e04f490007275794,مطاعم خروف المعلم,26.319306,50.158573,Restaurant,No rating,0.9246001427837828
62b0668dcd642a70117caf53,The Peak,26.317249,50.157409,Burger Joint,No rating,0.18342706128430256
6041536529ce7a31ae2a9532,Tam Tam (طم طم),26.322791,50.158982,Hot Dog Joint,No rating,0.3329742863942085
4d65eeab05a7f04db988ad8f,Kudu (كودو),26.323416,50.16464,Fast Food Restaurant,5.9,0.9445147230119864
5aa67c98872f7d145ab9c2bd,مطعم امي,26.323011,50.160139,Dutch Restaurant,No rating,0.29785448579050866
5ff1b8c7a6930e53eaeb34b4,مكبوس اكسبرس,26.323058,50.160422,Restaurant,No rating,0.9827281722423317
5e5941127af9bb00081b5a1a,The Lab (ذا لاب),26.328995,50.180774,American Restaurant,8.0,0.9275184429052742
4dcffeee183899ddfaf9e338,باسكن روبنز,26.332236,50.179509,Ice Cream Parlor,8.1,0.9425984143485177
4ed2e9761081bc34fc3d1d5e,BurgerFuel (برغر فيول),26.310025,50.171466,Burger Joint,7.5,0.8754900364474393
5fb81c7d91b49305168c97cb,Shrimplus (شرمبلس),26.328334,50.180888,Seafood Restaurant,7.5,0.9457171127616137
5c716f52535d6f002ce2bb9b,Thermo (ثيرمو),26.328026,50.179788,Steakhouse,7.2,0.9663080372239826
5b708a66037be1002cf2f3dc,Burger Chef,26.324913,50.171038,Burger Joint,No rating,0.9127891684723388
5c253daee97dfb002c605db7,Alsaadan’s Tent,26.318651,50.176936,Sandwich Spot,No rating,0.949725078593705
522af43511d27ece1bcdb9a1,Crispy Meal,26.317397,50.168348,Burger Joint,No rating,0.7493017372026903
60d38280d9de774423c858a7,المخفي,26.317505,50.167341,Burger Joint,No rating,0.8503024761713907
5da229ff7d116f0008428b52,مطاعم سماء ديرتي,26.323816,50.165361,Yemeni Restaurant,No rating,0.5621923573101539
59dc75742079553df2c82f93,مطعم الهند الحديث,26.324462,50.16531,Indian Restaurant,No rating,0.48039227965581593
635663330b4e42348c049838,حاشي باشا,26.323988,50.164738,Middle Eastern Restaurant,No rating,0.970190754123821
525ed723498e0707558af769,Oriant,26.323125,50.180544,Chinese Restaurant,No rating,0.6029233100787815
4d9044c4ca75b60cd81925a9,Shabab Albukhari,26.318405,50.16324,Restaurant,No rating,0.48719329667714584
5cba1cff2b98440039e999fb,كبسة العز الأكلات الشعبية,26.323614,50.163583,Middle Eastern Restaurant,No rating,0.673851780413572
5e7d97a21eef92000873855b,جوعان,26.321232,50.162733,American Restaurant,No rating,0.9635776105008704
62a08fdfe73a143f3f0bb2df,Koshary On Time,26.329387,50.173752,Theme Restaurant,No rating,0.1656291880111722
61476ec22355c86d6865e202,Lazha Resetaurant,26.323142,50.16132,BBQ Joint,No rating,0.05482145764707356
4d55576958856dcbe3aa486d,Schlotzsky's,26.314809,50.162886,Sandwich Spot,No rating,0.934795405869165
62f65b07f199207f74f16013,Bebu (بيبو),26.318372,50.194084,Burger Joint,7.9,0.06748412469783695
620eab31471781672d752cf3,San Carlo Cicchetti,26.317793,50.203803,Italian Restaurant,9.3,0.9934369559499505
60f16c3b3f1d11614da2cbd8,AGHATTI (اغاتي),26.317974,50.203748,Iraqi Restaurant,8.5,0.9826029233100788
4d162c37bb488cfa1b7aa4d4,Blue Strawberry,26.325373,50.202566,Dessert Shop,8.3,0.9012662667050764
64263ce71e5e33329b5a9c87,House of Agapi,26.317751,50.204029,Greek Restaurant,8.3,0.9679988978093962
4fe21078e4b0edfa93d877df,Mahraja Restaurant,26.323671,50.188962,Indian Restaurant,7.3,0.896857504289776
60af9976bc414b5b7f3ed07a,Seventh Floor (الدور السابع),26.333069,50.18703,Restaurant,8.1,0.9605215365539008
64263301b6893e7e81d52957,باسكن روبنز,26.328768,50.180609,Ice Cream Parlor,7.8,0.8655452712265628
5c7a788e8d0a53002c8c6067,Thermo,26.318347,50.180086,Steakhouse,7.6,0.7252539422101426
5f1df2e2b5d99d7356580e86,Pikniq (بك نك),26.318169,50.203807,Restaurant,7.7,0.985245675780614
5f0f256ef554670e3dae4c58,Merge (ميرج),26.328687,50.180382,Modern European Restaurant,7.4,0.8860735712228053
634ea3afef4a5278937593b4,Meat at Tony’s (ميت ات تونيز),26.3167,50.203722,Burger Joint,7.3,0.9939880512518631
5703f875498e52dae803d7b9,O burger (أو برجر),26.316956,50.204067,Organization,7.3,0.8672611815984269
4b616e4ef964a52045132ae3,Flamingo,26.316818,50.203926,Middle Eastern Restaurant,7.2,0.9461554840244987
6446c83fff1a333ace1bdfa3,Have It (هاڤ إت),26.318299,50.194005,Burger Joint,6.6,0.11485327087586579
601c1a9bac59ba3c07557b09,Kk,26.319494,50.190767,Armenian Restaurant,No rating,0.7694167157224985
5dc6915a1f0d2900089aa290,Eatatseven,26.32158,50.18715,Restaurant,No rating,0.45967610626119415
60032d580f4eba3d9f20b12f,Carbon,26.318453,50.194111,BBQ Joint,No rating,0.6014578975714232
521b26cc11d276316efc1363,Sushi Restaurant Oasis,26.322678,50.195186,Sushi Restaurant,No rating,0.24453601533046931
5c3e33c0b23dfa002c1d1631,Marinade,26.315099,50.189442,Restaurant,No rating,0.6950438997507546
5ff368ada6930e53ea676acb,Hoshi Sushi (هوشي سوشي),26.328057,50.180606,Sushi Restaurant,5.9,0.910559737478238
57033c33498e10db04fbbf76,Burger Works,26.313348,50.190256,Burger Joint,No rating,0.5016595483523503
55b611ad498ea86785c5146c,التصبيره لاونج,26.327626,50.196367,American Restaurant,No rating,0.9073784145990156
6133112caaee877c45aba766,Naif,26.31789,50.19981,Fast Food Restaurant,No rating,0.8548740621986197
58b6fe0dda54ae0320275025,Pets Houses,26.323171,50.179882,Steakhouse,No rating,0.9168597587705565
4fd64f91e4b06a2d8e50a90a,Bites,26.322756,50.179696,Fast Food Restaurant,No rating,0.2655903608421738
5029c94ae4b011d2337c9c7f,Blue berry Cafe,26.325755,50.19981,Indian Restaurant,No rating,0.5981012261870468
4cffa8f01fcef04d1c82c6b9,ماكدونالدز,26.311449,50.196421,Burger Joint,No rating,0.9554113801179845
5da06229ff733200080a620b,Cafe Libros,26.33154,50.192092,Coffee Shop,No rating,0.18650818501772273
5ef057fb8d0fc40008b59b0f,Wallflower (وولفلاور),26.327888,50.180356,Coffee Shop,5.5,0.9310003632219035
5fafe7e68db0fd3be2f4c504,Queenofindia,26.328149,50.180228,Theme Restaurant,No rating,0.8631655415137586
56c0b48fcd10e9781e2afef2,L'avenue,26.323653,50.203254,French Restaurant,No rating,0.9286832579752258
640b9e73d892fc6231cef0e2,Grill It (جريل ات),26.328568,50.18024,Restaurant,No rating,0.4038276073696472
5e6e5cd3d142f10008f51389,Hiesnberg,26.328902,50.180207,Burger Joint,No rating,0.6914492553950977
5daf33732ab63a000765003e,The Two,26.332647,50.192746,Restaurant,No rating,0.9051114089252389
58aec814febfbd06d053400b,مقبلاتي,26.308558,50.19293,Restaurant,No rating,0.3489059505767713
5db6f709272a1f00081fddf1,Arev (أريڤ),26.328365,50.180762,Lebanese Restaurant,5.4,0.9188011172204757
5650313b498ea3de9af65b4c,Sea Meal Restaurant,26.329147,50.179198,Filipino Restaurant,No rating,0.9211683220400546
630f621d12bc573dfe908c6f,Salata (سلاته),26.318995,50.208137,Salad Restaurant,8.7,0.9968437269072281
6335b7582fdfb26208402b0b,‏Woker (ووكر),26.318877,50.207675,Asian Restaurant,8.7,0.9886774965243421
61afa97a5177b432c598b578,SECCO BY COFFÉA (سِكُّو),26.325081,50.206751,Pizzeria,8.5,0.9412206760937363
57ded9c6498eec0d33124ee5,Seven (سڤن),26.326303,50.212711,American Restaurant,9.1,0.9812126601620721
6388d13906630719ab0e5aa1,THNDR (ثندر),26.319494,50.207294,Burger Joint,7.9,0.9953031650405181
5264012511d2caed0b5578aa,Maharaja by Vineet,26.322251,50.216843,Indian Restaurant,8.8,0.9759772547939028
5ab8bf0e8b98fd2a13b16aed,McDonald's (ماكدونالدز),26.329069,50.213639,Burger Joint,9.0,0.998772560463922
5dd2c756eb2f3e0008c4158a,Takara (تاكارا),26.321301,50.220279,Japanese Restaurant,9.1,0.9938878521060608
5c29232ef05ca8002d9a4af4,Shrimp Anatomy (شرمب اناتومي),26.321716,50.220701,Seafood Restaurant,8.6,0.986523214889593
5e3e6618448f0b000764a356,مطعم باب بو خوخة,26.314211,50.209686,Restaurant,7.9,0.9465312308212572
569bd39938fa14282bca1398,The Butcher Shop & Grill (ذا بوتشر شوب & جريل),26.319597,50.221847,Import and Export Service,8.7,0.9818263799301111
5c7b9e48b9a5a8002ca1d011,Pound of Prawns (باوند اوف براونز),26.321255,50.220232,Seafood Restaurant,8.4,0.9292594030635889
626803e5c58d7d64005504a3,The Town (ذا تاون),26.320413,50.222382,Burger Joint,8.6,0.983492190729074
5e4bdf027169e500087bbf47,Naya Daur (نايا داور),26.319797,50.221972,Indian Restaurant,8.6,0.937125036009068
59a186811c0b3419a58135cd,الرواق الشعبي,26.314534,50.210014,Middle Eastern Restaurant,7.8,0.9679237484500445
5420289c498eaf47155dfe8c,The View Club Lounge,26.322273,50.216897,Café,7.9,0.9564384213624579
62499f2c62db55105e8f37fd,Slider Code (سلايدر كود),26.319632,50.222711,Burger Joint,8.4,0.9675354767600606
5e35b18b4996140007ac05af,Vicoli (ڤيكولي),26.320058,50.222316,Restaurant,8.2,0.9796094738292356
63f5e18b840dc855ebe27291,Fatté w Snobar (فتة وصنوبر),26.319992,50.222427,Lebanese Restaurant,8.2,0.9797347227614884
58fe0bf5646e380af692960e,Lucca (لوكا),26.314524,50.21645,Steakhouse,7.8,0.9859094951215541
642639477615031bd67865db,بن عاقول,26.320448,50.222322,Middle Eastern Restaurant,8.0,0.9652434212998334
4c0cdf04c700c9b63975a1dd,Krispy Kreme (كرسبي كريم),26.328101,50.213597,Donut Shop,7.6,0.8794353778134042
63f3915de623aa357468338e,MAISON SOCIALE (ميسُّن سوسيال),26.319986,50.216334,Restaurant,7.5,0.42555829711551707
607b3034a8476a03b3bac863,Zankil (زنكيل),26.31801,50.222732,Lebanese Restaurant,7.8,0.968913215014842
63daad235ebc7747f7517e6e,CHEF BELAL & TEGAN (الشيف بلال وتيقن),26.319855,50.221988,New American Restaurant,7.7,0.9740233714507583
5dfe2aee1d883f0007ca7626,Dolma (دولمة),26.317878,50.223006,Middle Eastern Restaurant,7.8,0.8758657832441978
6343ac41df00a12320908309,Spin Burger (سبن برجر),26.313474,50.212208,Burger Joint,7.4,0.9823524254455731
63d2b53bd4729c1f2694112c,La Gioia,26.330877,50.213286,Italian Restaurant,7.6,0.9619994739544845
618e8f8f757a3a0201204c03,Burgerfi (برجرفاي),26.32091,50.222072,Burger Joint,7.6,0.8943274758582683
5af402cd3ba767002cbad9e7,خيمة موڤنبيك الرمضانية,26.321928,50.216515,Theme Restaurant,7.0,0.9460177101990206
5c012617dee770002ca33e77,Eat’sy (ايت'سي),26.320596,50.22247,Modern European Restaurant,7.2,0.9110732581004747
61e0476c821d452a8414c7cf,Bloo (بلو),26.325191,50.20795,Restaurant,6.7,0.16073195476008567
629b246d38312452705e5a25,Be’ken Battle (بيكن باتل),26.320091,50.221886,Burger Joint,7.1,0.5889580541325885
50b5dd9ae4b033ea1fa2659c,TURKISH AIRLINES (الخطوط الجوية التركية),26.314555,50.217032,Deli,6.9,0.8625142470660437
61f82289eecfd64af0133358,Al Balad (البلد),26.320078,50.222726,Lebanese Restaurant,6.5,0.735236282110695
640f6a6be300bc3919e5163b,Thnder Diner,26.319533,50.20734,American Restaurant,No rating,0.9003143748199547
5e3847c85b8fed0008b101d4,مطعم اريانا البخاري,26.318393,50.214019,Middle Eastern Restaurant,No rating,0.06649465813303941
60633bb9d3e1ea586304ca06,مطعم الكبش,26.314709,50.20951,Indian Chinese Restaurant,No rating,0.8991746095364537
606623d68c1c5c60e399adf6,Bergamo,26.322018,50.215391,Italian Restaurant,No rating,0.9176738768302001
61e00ad552dc4a469d90597c,ALDENTE (آل دِنتي),26.316602,50.223052,Italian Restaurant,8.8,0.9927856615022357
6184dff0cc7cc27c9ca3f5b2,Bright Side (برايت سايد),26.310257,50.223579,Sandwich Spot,8.6,0.6315301662053331
5ff04a7f6a11745dd108f75c,Subway (صب واي),26.309166,50.219094,Sandwich Spot,8.8,0.4427800253002843
639cba087f68796bb4cc6554,دجاج كنتاكى,26.312923,50.222949,Fried Chicken Joint,8.0,0.9951779161082652
59515dd30d8a0f701e3dd86e,Lusin (لوسين),26.309335,50.220052,Eastern European Restaurant,8.3,0.9069275184429053
50813908e4b0a7491bdb7a52,The Blue Restaurant,26.322266,50.216544,Restaurant,7.8,0.9623376460715672
5e52c6ce4d7cf80008729ac5,Grill Shack,26.317571,50.223086,Burger Joint,7.4,0.0029308250147167497
619cdd673a202144f3402c27,ذا بوتشرز,26.319649,50.221935,Burger Joint,7.2,0.8955549153943463
60e3504185ec290cf4f25664,Squash (سكواش),26.313597,50.21646,Salad Restaurant,7.5,0.10986836337220225
632dc7f166718a3f7da62c27,Station Day (ستيشن دي),26.31036,50.224137,Seafood Restaurant,7.4,0.9838679375258326
61b6fa1f729f3869411769fe,The Shawarmwa Co. (ذا شاورما كو),26.310438,50.223403,Shawarma Restaurant,7.2,0.9333299933618066
52f68ae611d2c74a5cbe418d,Rawabi Najd Restaurant (مطعم روابي نجد),26.342151,49.970854,Middle Eastern Restaurant,8.1,0.999747772698529
6396f8067bd38f5f4925d51c,Al Baik (البيك),26.342118,49.970651,Fast Food Restaurant,8.0,0.999880415393853
626c7129160e135d5cd83100,McDonald's,26.35008,49.969517,Fast Food Restaurant,7.8,0.9999034515940579
63d11affeae017228ea3e4b7,Shawarmer (شاورمر),26.341963,49.970048,Shawarma Restaurant,No rating,0.9770374901812969
f38a2efebb3284f398a8ad7c,برجر كنج,26.341017,49.966699,Burger Joint,No rating,0.15771089202199878
5ecebadf047deb0007b5ddf2,The Circle (برجر الدائرة),26.346766,49.970341,Restaurant,No rating,0.7717523647677685
5a4f7ea8c0af570ec9713d3f,Al Morooj Restaurant,26.342352,50.037604,Afghan Restaurant,No rating,0.8657563177455924
626da9c94ca79b4f4eae75d6,رخيص و قوي,26.343502,50.039753,Fast Food Restaurant,No rating,0.27057861335707556
60b1079e0b27be142b891a52,اسياخ,26.343674,50.040035,BBQ Joint,No rating,0.9920180551385711
616d710184b66b16b7fdcc2a,McDonald's,26.349621,50.051556,Fast Food Restaurant,8.7,0.999078608180717
617eb36de8f2742f714341bf,المشوى العنابي,26.347159,50.048865,BBQ Joint,8.1,0.9786941082687152
5c6131dc35811b002c3ea0a9,مطعم حاشي باشا,26.34826,50.047229,Restaurant,7.9,0.9735798660358411
616f22a3addd00190fb817a5,McDonald's,26.349737,50.052138,Fast Food Restaurant,7.5,0.8964831820111189
54109c88498eae11017387bf,تثليث للبخاري,26.349552,50.047361,Middle Eastern Restaurant,6.6,0.9875042704957916
5803a7cf38fad083e5bd4649,فلفلة,26.350558,50.050824,Egyptian Restaurant,6.4,0.9688900852028615
5c6e623cf709c1002c75fe35,مطعم ومطبخ المروج,26.345854,50.04313,Middle Eastern Restaurant,No rating,0.9698942987587093
5a3989f812f0a965ff2d48e7,مطعم الامبراطور التركي,26.346488,50.045507,Turkish Restaurant,No rating,0.47307775925791723
617c69baaab3314d5930e9dd,Ennabi Grill,26.347033,50.048477,BBQ Joint,No rating,0.902539521497417
646261d7d4b2d46905c353d0,Lahab pastries,26.347792,50.046254,Pizzeria,No rating,0.6197964655823921
60df2642fc78855e4d5838d9,مطعم نكهة مختلفة,26.347315,50.049564,BBQ Joint,No rating,0.9184516476349218
62687ba0db9c4625c4839e31,Qassr Al-Madhbi (قصر المظبي),26.348277,50.049891,Middle Eastern Restaurant,No rating,0.90085202861491
5c7bc3f8bcbf7a002cc5ae63,مطاعم التركستاني البخاري,26.346811,50.054181,Restaurant,No rating,0.8793287298251427
63926dcdd72a8c5fbb18b435,2/3 ثلثين,26.348701,50.050838,Sandwich Spot,No rating,0.3641361175240442
61cf19ade816b708fd050ec5,شورميه,26.349447,50.051556,Shawarma Restaurant,No rating,0.9450788359404926
595e775581635b657dd0e26d,برجر مشوي,26.350386,50.049153,Burger Joint,No rating,0.9598521632002319
5c43883d598e64002c133811,برجر مشوي على الفحم,26.350218,50.050085,Restaurant,No rating,0.6009855786651207
52a0806b11d208bde230e260,مضغوط روامس,26.345663,50.066556,Arepa Restaurant,No rating,0.5018376072800307
5fe60944d517076d83067344,مطعم الوصيد,26.342654,50.079242,Restaurant,No rating,0.8693487105690889
5fe61f41333e68133b827f07,Al Waseed,26.342823,50.07902,Restaurant,No rating,0.5665627944053917
62c5acc8873e40311e0a7cfb,Wao Bao (واو باو),26.344381,50.090088,Chinese Restaurant,No rating,0.9458035261354343
5ff0a361ebc1585dcc8c3355,Slice of Heaven,26.334659,50.121323,Pizzeria,7.1,0.9311026678951891
5ba209f467f62b002c4f794c,Ewan (إيوان),26.335534,50.120561,Restaurant,6.0,0.9233795409605251
629d7917dc3372582213fd7e,Al-Multaqa Restaurant,26.336111,50.119377,Mexican Restaurant,No rating,0.8177300632551013
5e3e98554c4a8500087f785e,Taste of Hanoi,26.33578,50.12026,Vietnamese Restaurant,No rating,0.6105204310871388
5f6a43272384f9219c96f2ab,TAKYA (تكية),26.335334,50.120436,Middle Eastern Restaurant,No rating,0.9097553652956218
5d6e88337c763a0008fe84de,Etlala,26.336029,50.122559,Lounge,No rating,0.23502738293665174
5fef105335cccf254fdefc5d,MTKTK (متكتك),26.334552,50.121529,Diner,No rating,0.9528019628751566
627561c03e19735fe1e3e956,The Corn Dog,26.335809,50.122949,Hot Dog Joint,No rating,0.5581149772757861
617adc1160c5102115455fcd,Arvo,26.335735,50.122915,Burger Joint,No rating,0.47925833134906254
61a52368ebe07632afac6803,Freshhouse,26.335538,50.12296,Restaurant,No rating,0.6458439017320096
50756319e4b07a83bbf88835,Sate ayam madura,26.342217,50.129323,Arepa Restaurant,No rating,0.8223266696344456
56f028af498e9e1103f44b38,OLIVA (أوليڤا),26.345423,50.13699,Italian Restaurant,9.0,0.993094737713913
52e644c2498eb9e2582f5a33,Broasted Bawanland (بروستد بوان الارض),26.345807,50.137302,Fried Chicken Joint,8.3,0.9884567204662864
4f8dbd01e4b08f9379ed1839,Al Mumtaz Restaurant (مطعم الممتاز),26.346283,50.13629,Middle Eastern Restaurant,8.4,0.9978466348493162
53751a42498e72444f7f355a,McDonald's (حي القصور),26.346329,50.13681,Burger Joint,8.3,0.9781143561127618
52388c3811d232e290957a3a,صب واي,26.333493,50.147988,Deli,8.8,0.9725238888946404
5b30cdc886bc49002c0976f8,Tokuzō (توكوزو),26.345862,50.145384,Japanese Restaurant,8.5,0.9839739939747186
5cf1f0913731ee002c8dce47,Buzz Coffee,26.345095,50.146413,Coffee Shop,8.4,0.9909517252802998
571532f3498e9f6676facddc,la Casa Pasta (كازا باستا),26.348335,50.143256,Italian Restaurant,8.4,0.9919869969873594
5991b8d51108ba4e3236010e,Teef Shawarma (شاورما طيف),26.344748,50.138349,Shawarma Restaurant,7.7,0.9928669779383599
5abbd115f1936e34bec364ab,مطعم أهل الشرقية للمأكولات البحرية,26.347429,50.144144,Seafood Restaurant,8.0,0.9746358431770418
53751feb498ed7ba8fbf216d,McDonald's (ماكدونالدز),26.348455,50.143078,Burger Joint,8.0,0.9990579027465758
50d8c19fe4b09e2e6a013cf3,Herfy (هرفي),26.343765,50.138844,Fast Food Restaurant,7.5,0.9838083505015891
59936b728c812a35ff8f3dee,just fresh burger (حي القصور),26.34434,50.144544,American Restaurant,7.8,0.9243319909310198
4f8b1290e4b01f95a467df2d,باسكن روبنز,26.333263,50.148226,Ice Cream Parlor,7.9,0.8841634486971106
5986a8ec2632ec78a0a5db7c,مطاعم الوليمة الشرقية,26.345285,50.137794,Middle Eastern Restaurant,7.4,0.9899682171585933
553bb7fd498ea359887d6108,Saadeddin Pastry (حلويات سعد الدين),26.350336,50.132859,Dessert Shop,7.7,0.9332042694605199
57fa6b5e498e988331a5f7b1,Pizza Station,26.347383,50.144097,Pizzeria,7.6,0.6608656942014431
58ca5330297c165420ca9266,ChillinG Moment (تشلنق مومنت),26.347122,50.144462,Restaurant,7.5,0.9249117430869732
55d79992498e54f2270925f9,KFC (كنتاكي),26.347459,50.144018,Fried Chicken Joint,7.3,0.9921629931775594
58a01cc4dfa6ff7ee6a61f7c,Just Fresh Burger,26.347152,50.144335,Burger Joint,7.3,0.9088857370616918
4f2e62b6e4b0118a86c3ac96,مطعم ابو سمرة للرز البخاري,26.344087,50.138464,Middle Eastern Restaurant,6.9,0.9561562432060294
50046c90e4b02f063e181f79,مندي الدانة,26.337349,50.146324,Middle Eastern Restaurant,7.1,0.021864938453097015
5b1be32cb3c96100391a869c,سندباد,26.34471,50.145628,Restaurant,7.2,0.9745840795916888
55b365ff498e461b41f1ca0a,Hardee's (هارديز),26.347459,50.144018,Burger Joint,7.0,0.9552037932355346
58678de15a58697f1aa2399b,Al Lahib Broasted (بروستد اللاهب),26.347045,50.144541,Fried Chicken Joint,7.0,0.10012112678972597
5fff45270fc3754cfb467e70,Shawarmer (شاورمر),26.348027,50.143337,Shawarma Restaurant,7.0,0.9647800565258352
60b24d01a466de0c599e2fb5,هامبرغيني,26.348407,50.14315,Burger Joint,7.0,0.9409377491122545
5a413dc73b83076b586eff9f,Ousha (أوشه),26.345986,50.145588,Shawarma Restaurant,6.9,0.27731823217003304
593c6bceee712035b107c32e,Zahr Al Yasmeen (زهر الياسمين),26.346246,50.145224,Middle Eastern Restaurant,6.8,0.8760469185137639
5a4fbbc9b040561499c2da97,شاورمجي,26.348258,50.143335,Sandwich Spot,6.8,0.897704802625449
58a01be206f1a341b549c9ca,Elevation Burger,26.346738,50.144858,Burger Joint,6.5,0.8791527336349425
538b300c498e2936ab993e8c,Mishwar Restaurant (مطعم مشوار),26.347889,50.143432,Middle Eastern Restaurant,6.4,0.9518495129046618
61d4a4d8c14845075b1d3d2e,Tasty Toast,26.347061,50.144256,Burger Joint,6.2,0.9096828962761276
612d0dee803eba31d6db52ff,Koko Grill (كوكو المشوي),26.340373,50.140352,Restaurant,No rating,0.8557452403383268
58a0191ba36ecd09c47d60d0,Broccoli,26.34617,50.145303,Italian Restaurant,6.0,0.7213980309132132
5133320be4b01507f1612926,Almumtaz (مطعم الممتاز),26.343732,50.13708,Middle Eastern Restaurant,No rating,0.9304090358514592
62c1c0ebff7ec11ac86e5389,Five Guys,26.338478,50.153112,Burger Joint,8.8,0.99391260236249
6238ddf7aa276e130d31f24a,Earth Bar (ايرث بار),26.339406,50.152586,Salad Restaurant,8.5,0.9835081217065419
6238c44d4b5acb348b9c6b3c,Novanta (نوڤانتا),26.3388,50.152919,Pizzeria,8.4,0.9324692265485076
63cc379137041f69450f3528,Saldwich (سالدوتش),26.339046,50.152519,Sandwich Spot,8.2,0.9612601327218329
62c1c126c098d4616f4a45b7,Brnx,26.339118,50.152686,Pizzeria,8.1,0.1193461223898212
61f695d3823c9d1403a9176e,صب واي,26.338957,50.152561,Deli,8.1,0.9822657956580705
6237406cad00d3773e57f4a5,Yasumi Ramen Shop (يسومي),26.339165,50.152447,Ramen Restaurant,7.8,0.9853301999109666
6238c99cc6d97439961e9b1c,عدوله,26.339104,50.153014,Middle Eastern Restaurant,7.5,0.7798287660596523
63c7a9122778995c9697521d,Spot (سبوت),26.339768,50.151752,Fried Chicken Joint,7.5,0.9366931351133105
520a1db9498e819cff4d4ae3,مطعم البخاري,26.337586,50.166704,Afghan Restaurant,7.4,0.9707668992121842
5263b27e11d28da50a48574d,Jasmis (جسميز),26.339768,50.151774,Fast Food Restaurant,5.9,0.27146894702514673
63fcd16bcf451c48d942f9ba,LATE diner,26.340157,50.154778,Diner,No rating,0.918317062313004
63e148e4bfb5c227c9c9d1bc,AfteRaLl,26.340232,50.154683,Diner,No rating,0.6545919476566625
639e4f1cc1ceae7b39745f15,MIRoS,26.339769,50.151848,Vegan and Vegetarian Restaurant,No rating,0.10612570269067116
4d2efb11ad3a8cfaff3999bd,دجاج كنتاكى,26.33314,50.148259,Fried Chicken Joint,6.0,0.26654105369954345
4f8dbd15e4b01d92a6feede9,مطعم الممتاز الظهران,26.339213,50.150029,Middle Eastern Restaurant,No rating,0.18449577091507666
5e7d16a45f382a00085cc583,مطبخناا,26.338151,50.148949,American Restaurant,No rating,0.20509767788556107
5419e35a498ebf9d6160ff31,Up Up And Away,26.342964,50.151169,Afghan Restaurant,No rating,0.46400877910407584
63034748e712e00373eb79de,Bellevento (بيليڤينتو),26.343621,50.184432,Italian Restaurant,8.9,0.9909445021981188
5d29fd794fa0730023d320bf,Namat (نمط),26.342671,50.181788,Health Food Store,8.2,0.9800478450921206
63111b90b318fd3b66e95080,We! Burger (وي برجر),26.342626,50.181915,Burger Joint,8.0,0.9880736699346744
5672f639498e87c833b321df,حلويات سعد الدين,26.327414,50.167605,Dessert Shop,8.1,0.9677483999448905
51a38761498e042325190cbd,Arabian Village Restaurant,26.336033,50.181405,Restaurant,7.6,0.9020803847647199
58cd81e0f16bb5083794cda9,Herfy (هرفي),26.334295,50.179795,Fast Food Restaurant,7.5,0.9740108465575331
5505d1d9498eded0dc098bc3,Bistro Lounge,26.344225,50.185336,Bistro,7.3,0.9140166080084168
4ed768c6722ec4ce1eeeb123,فيروز جاردن,26.330436,50.162735,Mediterranean Restaurant,6.8,0.404128204807054
51aba6e8498eeebbab023d31,Dar Alkaram (دار الكرم),26.330144,50.162753,Middle Eastern Restaurant,6.5,0.8986986635938928
5631cf87498e8cced59512f8,Sajmania (صاج مينيا),26.330436,50.162735,Sandwich Spot,6.2,0.057025838854723766
56706e3d498e68441938631f,Snack House (سناك هاوس),26.327291,50.167638,Sandwich Spot,6.2,0.895016344985659
58fe05ebd8fe7a3584f96202,Broccoli (بروكلي),26.346816,50.178218,Italian Restaurant,6.0,0.39642624206723054
51d32773498ea369519a4183,Shawermaat (شاورمات),26.341244,50.167514,Burrito Restaurant,No rating,0.2754029795119729
612282f2975b4c43f6248737,4 Chefs,26.336955,50.166252,Restaurant,No rating,0.6104382460139527
5e5528b8cfa69a0008e3c143,صاج وي,26.337723,50.165899,Fast Food Restaurant,No rating,0.07977803774600643
639a24e9143f1b52b00a4baa,DLite,26.337867,50.165979,Pizzeria,No rating,0.8220471462735395
4cbfc2c41c6c6dcbc919715e,Al Ghoroub Restaurant,26.341071,50.179845,Middle Eastern Restaurant,No rating,0.4610162698362996
56841de638fadae9870c510c,Sul kitchen,26.331857,50.169214,English Restaurant,No rating,0.27542240202402274
58e6a2a2fc5a5f12caa98fe1,هرفي,26.334295,50.179795,Fast Food Restaurant,No rating,0.19439886774965243
50fac54de4b0d04868aeffdf,Hungry Bunny,26.333388,50.163849,Burger Joint,No rating,0.8874888841572626
5cb33ffbacb00b002c09223f,آرمين,26.337418,50.18423,Kebab Restaurant,No rating,0.923735925151238
63dfec2dc46ccf575a951e9d,Grillit,26.329014,50.177575,American Restaurant,No rating,0.7659848949787703
5fac41b45fbcf1419fff9b0f,Enabi,26.331358,50.162493,Middle Eastern Restaurant,No rating,0.49457045878683886
5e85e92cb0d6660008910b92,The Barking Lot,26.335582,50.193452,Pet Café,8.8,0.9716812164176301
5734440b498e19234e5a1731,Tamimi Markets (أسواق التميمي),26.345617,50.196191,Restaurant,9.4,0.9973948222091407
58f1d45df62f2b07a6795be4,Raising Cane's,26.345494,50.195987,Fried Chicken Joint,9.2,0.9973822973159154
63ca9eb4ab7aa32866c789b8,Malama (مالاما),26.336941,50.200586,Hawaiian Restaurant,9.3,0.9996242532032414
61200fbb69c2e87c70277761,Madame Banquet (مدام بانكويت),26.334297,50.188749,Restaurant,7.9,0.9978457183652509
5e03a253169dec00096d616c,Leopardo (ليوباردو),26.350056,50.195202,Pizzeria,9.2,0.9927480868225599
63479d7e8a7e8765946e77a2,Scatola (سكاتولا),26.34375,50.203767,Italian Restaurant,8.9,0.9923347653461254
61751599000f190c61d71bea,BRNX (برونكس),26.345594,50.195596,Pizzeria,8.1,0.9560376247792488
59f3a8c512f0a97a14053c75,Abs Kitchen (آبز كيتشن),26.343778,50.203758,Health Food Store,8.5,0.9920592176951691
646695cd2d9b314389759c72,The Wings Club (ذي وينقز كلوب),26.343908,50.203843,Wings Joint,8.2,0.9620495735273856
59fb145058002c2cdefa60a8,Jasmis (جسميز),26.345755,50.195859,Fast Food Restaurant,7.5,0.8674991545697073
621a1a6f8361ba2576a3ea7b,Los Chavos (لوس تشافوس),26.337485,50.201328,Taco Restaurant,7.5,0.9650555479014541
56c87644cd109e9ba28dcc41,The Hut Burger (كوخ البرجر),26.335536,50.193169,Burger Joint,7.0,0.9095827958066658
530a315c11d2601b86b2aa00,Canary Resto-Cafe,26.348713,50.186756,Café,7.3,0.8703297804386217
599f1f89e1f228209723c434,Lghawees (لغاويص),26.343778,50.203758,Shawarma Restaurant,6.9,0.931413684698338
5b8196b2bcbf7a002c6dec14,Lemon Restaurant (مطعم ليمون),26.338161,50.190649,Lebanese Restaurant,No rating,0.17278090204281008
63f4ca0e92130300f1921654,Curry Express,26.338381,50.191233,Indian Restaurant,No rating,0.2561340664570835
5ab7dca47dc9e15079585b56,Temperature,26.337463,50.202523,Modern European Restaurant,6.3,0.16829699026815798
5ddaab0e6292a1000897c34d,Mr Grill,26.334318,50.188942,Turkish Restaurant,5.7,0.7214087999899801
51b6ec05498e4ce5be2c7dbb,Euro Restaurant,26.33765,50.18659,Eastern European Restaurant,No rating,0.9305244172793427
5661b3aa498e32e2286dadd4,نتهذغنتاً,26.342847,50.190777,New American Restaurant,No rating,0.7922245462857429
5aa78f3a64c8e102e16e5ccb,جست لاكازا,26.338771,50.185528,Fast Food Restaurant,No rating,0.8614746809283451
5662021d498e97d0c0da20ca,Ghjjh,26.342816,50.190667,Asian Restaurant,No rating,0.014178179131022909
5662eaf6498e1e6bef03078b,Hbujii,26.342816,50.190667,Cambodian Restaurant,No rating,0.17217970716799638
5662eab1498e347f6f6f342e,Bynove,26.342816,50.190667,Cambodian Restaurant,No rating,0.03177565411254869
57398866498e06f09af89f6e,Sandella's Flatbread,26.338725,50.185481,Sandwich Spot,No rating,0.21587905963101664
5662ea82498edd850ac14c98,Kkkk,26.342955,50.190808,Cambodian Restaurant,No rating,0.8816021843413785
60d9e9571dbe9e357fab91d6,La-Parrilla,26.33437,50.189079,BBQ Joint,No rating,0.33769617114014105
5069bf45e4b064a76e01617d,Village inn - Euro Village,26.334563,50.18746,Eastern European Restaurant,No rating,0.8879272554201475
55428815498e2c25c5ae311c,Burger King (برجر كنج),26.34166,50.185715,Burger Joint,No rating,0.884958855725755
5202306c498e88d2ff4bd0ce,Curasao,26.335599,50.195278,New American Restaurant,No rating,0.5464861412056462
51c7f0e2498e84000ee8b4fa,East europe,26.335599,50.195278,Eastern European Restaurant,No rating,0.4440700893024887
51c69dbe498e31c140f1c6a2,Carobbeana,26.335568,50.195404,Caribbean Restaurant,No rating,0.08931501358950915
63e8a1f8d20edd534683c2cf,Sold Out (سولد اوت),26.338566,50.208806,Burger Joint,9.2,0.9987600355706968
5b2efee0237dee002c2d1364,DiCE,26.338389,50.207711,Burger Joint,8.0,0.6865394972507859
6199332594888e3c73b84e6d,MÁRMOL (مارمول),26.330298,50.213049,Restaurant,8.5,0.35084730902669053
6421fd7e69e8852f2a1df374,Ziba (زيبا),26.351144,50.211345,Persian Restaurant,9.2,0.9920466928019439
55be1c23498eb47f8e8a9337,Lounge Al-Majlis,26.332633,50.214593,Middle Eastern Restaurant,8.3,0.7158477473979534
61ec3ef0d48093409b75058c,Phi (فاي),26.328618,50.213492,Burger Joint,8.7,0.9374506832329255
6374f4417073a2240e844d09,Bistro,26.35049,50.212308,Bistro,8.9,0.9850828521686853
5e2c3514724a5e00088ac9a2,Crowd (كراود),26.330374,50.212529,Restaurant,7.5,0.9114740546836838
5bb0db8fbd4009003994fc6f,Falla (فلة),26.330697,50.21333,American Restaurant,7.5,0.9522676319184379
58f3cb08c8772e10339008ad,Papa John's (بابا جونز),26.343932,50.204308,Pizzeria,7.3,0.4278127778960684
63bc13ec265cff251a5400d2,Army Burger,26.326211,50.211607,Burger Joint,7.5,0.9057376535865032
620563441c879e677ef7cccc,بحر بيروت,26.330468,50.212746,Theme Restaurant,7.1,0.4519106724615173
5f7c6d6911aaf1502d14169c,Trip Lounge (تريب لاونج),26.330573,50.21289,Coffee Shop,6.9,0.9582795806665748
6058e94ef58dd83e14ff0414,Pi Cuisine (باي كوزين),26.330738,50.212838,Iraqi Restaurant,6.6,0.42947858869503136
5b9a8fdcab42d900391d4032,Taverna (تاڤيرنا),26.326149,50.21169,Greek Restaurant,6.7,0.498002279530567
5d495a1abb12590008494fa0,محيوف حوف,26.343948,50.204245,Middle Eastern Restaurant,6.1,0.3764857654588495
5b964511cad1b6002cbab50f,كازاباستا,26.342554,50.209983,Italian Restaurant,No rating,0.9544469633396375
5b7957f7efa82a002cf9f62c,Bc Box,26.337418,50.202948,Fast Food Restaurant,No rating,0.4590498615999299
5f4921252d406a653b049cce,Crwod Restaurant,26.336311,50.20253,Restaurant,No rating,0.6490149171478313
63972b06180a0f1536bf7429,Shawarma Zone,26.343847,50.204433,Shawarma Restaurant,No rating,0.22231685474881327
61cb2cbcf77e953d574edfbc,قلعة عمان,26.343905,50.204452,Restaurant,No rating,0.9668215578462194
63ff9dc968f694706334da44,شاورما زون,26.343874,50.20436,Shawarma Restaurant,No rating,0.3736801893763856
63a7e1a9c459fd5a9817b6df,Vatu,26.343777,50.203735,Restaurant,No rating,0.23908768677747022
63ad6fec9451ea3239049bec,بافليون,26.333267,50.212348,Burger Joint,No rating,0.9364987913478038
5e4aaec8e6eec6000850fddd,Simple Canteen,26.343609,50.203272,Middle Eastern Restaurant,No rating,0.4335992785661502
632e1d084a119d2857d98613,Le Wak's,26.344082,50.20369,Fast Food Restaurant,No rating,0.32971781415563434
531cb681498e7d946e8be2ee,منؤشة الريف,26.332401,50.21247,Bakery,No rating,0.9246878170363597
5fe672170985f93a58841eaf,The Carwleys Restaurant,26.337124,50.200132,Diner,No rating,0.37286607131674204
52020978498efb276c8abf04,Pasta rema,26.340211,50.199499,Italian Restaurant,No rating,0.7067671998096217
4d4038d4bd53f04daa494215,Agadeer Cafetaria,26.343362,50.201211,Restaurant,No rating,0.46539998246514946
5f6cdcd816f16b09e05e7f1e,T A V E R N A,26.33037,50.207336,Greek Restaurant,No rating,0.8603850152177452
4f9f19ffe4b0a294b563ccad,Bun Bun Sandwiches,26.340625,50.198741,Sandwich Spot,No rating,0.9026314800666324
5efba252b552bc00073001e0,Arrivals,26.330343,50.212183,American Restaurant,No rating,0.3726406232386869
5e1604712367dc0008f0d9eb,Burgerandi,26.329974,50.212752,Burger Joint,No rating,0.2507608872634361
52ceb64c11d2ede2139a2040,ماكدونالز,26.331998,50.200327,Fast Food Restaurant,No rating,0.9336681654788893
5c8eaef4dab4b1002c547b85,SALT Albahar (سولت البحر),26.334776,50.225894,Burger Joint,9.4,0.9983091394145865
52487f6a11d26c11d5d4e4ab,مارينا - مطعم سوق السمك,26.331013,50.227175,Advertising Agency,6.1,0.3390238098220213
5c18876cb5cb76002cacdbaf,بوفيتي,26.339796,50.221568,Burger Joint,No rating,0.0784809809496374
5cb1d289f05ca8002d135f71,فدركرز,26.330644,50.226328,American Restaurant,No rating,0.5702834383336882
5612cd42498e5ccadf346afe,مطعم مغل,26.331028,50.227112,Restaurant,5.3,0.8717325684798537
5288d39911d22424b5ac13ae,Vanellis,26.331898,50.216309,Italian Restaurant,No rating,0.6245162259991733
583c50c618384c41774558c5,ركن الرحلات(حمام-دجاج-خضار مجهزه),26.35709,49.962623,BBQ Joint,8.7,0.9992428344626544
590cdb0b396de05f4867244e,Golden Corner (الركن الذهبي),26.360255,49.967414,Middle Eastern Restaurant,6.5,0.9972580049077543
60aa79b71b3a1a173b9cf860,مطعم وقت السمك للماكولات البحرية,26.35532,49.968119,Seafood Restaurant,No rating,0.9476329642475881
60acf7a5f0495e1dbd3304cd,Fish Time Restaurant,26.355414,49.968061,Seafood Restaurant,No rating,0.27731728710535586
5abff952d7627e445a7a6301,مطبق ومعصوب ركن الديرة,26.357957,49.965238,Middle Eastern Restaurant,No rating,0.999505319873167
5b3bc34489b06a00399a1079,مطعم الحلز,26.358404,49.965297,Restaurant,No rating,0.9687599852700681
5e898429d120590008672cd3,مطابخ قاعة الاندلس فرع الفرسان,26.362175,49.965896,Asian Restaurant,No rating,0.9909072172364334
52e3afab498ee20ce63a8bc2,مطاعم دانة السور البخاري,26.35783,49.963375,Middle Eastern Restaurant,No rating,0.9961964815296892
61ce06ab34521721c5b94a78,ماكدونالدز,26.35026,50.018413,Burger Joint,8.0,0.9999059970305447
64038d65171c271c8926dd90,Thimar,26.351351,50.018281,Falafel Restaurant,No rating,0.8159567457032332
53ac5138498e53f9cc534a0a,مطعم ابوهيثم محطة نفط,26.351268,50.01855,American Restaurant,No rating,0.8931522234909526
57c145af498eb6f44541e6bd,كودو,26.350609,50.019849,Fast Food Restaurant,No rating,0.25106374167900364
6026c0e6f8997231864b84ae,مطاعم ومحانذ بن عواض,26.367828,50.03674,Middle Eastern Restaurant,8.1,0.9926392181628069
56f93430498efb53adb54834,مطعم طعم و أكثر,26.363808,50.037198,Halal Restaurant,6.4,0.9683103330469082
54fe4082498e6432e844a61b,Rozana Restaurant,26.363071,50.029282,Restaurant,No rating,0.7009786668749852
5803c5e9d67c73ace14a7d03,الديك الاول,26.360067,50.035287,Sandwich Spot,No rating,0.15639849678548134
60c0ac7e5469eb35cfcead04,مطعم جبال فيفا,26.365947,50.027782,Diner,No rating,0.996881814849379
5de16e717585710008d71364,مطعم تثليث البخاري,26.365829,50.031927,Restaurant,No rating,0.9979382219001057
6426251a292e6e70fbc49326,مطعم الرويشن للأكلات الخليجية,26.352672,50.039304,Middle Eastern Restaurant,No rating,0.8672367562866874
5e16107886c4910008944386,شورما ريف,26.36697,50.033638,Shawarma Restaurant,No rating,0.3179940575404015
53e31696498e59451b98a6a6,مطعم باب اليمن للمأكولات الشعبيه,26.366986,50.033812,Yemeni Restaurant,No rating,0.9148592548114253
60ae388dab6ad13aa1cb4093,العزيمة,26.367302,50.033305,Asian Restaurant,No rating,0.5623181804064477
6065b9694fa2c16a8d9eb1fc,Shami Roll,26.367754,50.034469,Asian Restaurant,No rating,0.7146480593831851
58a36b93fc5a5f67daec78ab,Burger Monster,26.360677,50.041341,American Restaurant,No rating,0.8821860797366269
5dab69d7b98dcc000814b5e8,H.M Burger,26.364964,50.038609,Burger Joint,No rating,0.9147350222065781
63334c2e73b95d4db0aa9784,مطاعم الجلسة الخليجية,26.366037,50.038164,Middle Eastern Restaurant,No rating,0.22733531415319952
5fe9a70e5f940f7830c807f7,صفرية,26.367421,50.036538,Middle Eastern Restaurant,No rating,0.8785108651765656
58a767c24ca49b71b454d08a,Burger Monster,26.36094,50.041923,Burger Joint,No rating,0.9085648028325034
60159ebe8981744a86fadfae,مطابخ بن عواض,26.367345,50.036618,Middle Eastern Restaurant,No rating,0.8743490729141863
51bf2cec498e541eb377ec13,McDonald's,26.355064,50.050757,Fast Food Restaurant,8.2,0.9468802087107762
5f7f5bb90349b662d39de197,القهوة الشعبية,26.367614,50.050518,Coffee Shop,7.4,0.9035851459215472
563613e5498ebe3746ec51df,حلم شاورمتي,26.353554,50.049144,Turkish Restaurant,6.9,0.9712608574120278
5c3c74851c0b34002cb788b5,مطعم رياض البخاري,26.356902,50.046246,Afghan Restaurant,No rating,0.5522967502821116
57507f0dcd10a2982faf9bd9,برجر بوكس,26.35667,50.045775,Burger Joint,No rating,0.9671715341691427
58cb0e192603275d9efd4b60,Burger Box,26.356578,50.045681,Burger Joint,No rating,0.47299493752135247
601458920db3f17a1cbd1aa1,غنم و غنم,26.356223,50.045242,BBQ Joint,No rating,0.9541374633772634
621e7758bdbb6610f895dc9f,مطعم يبيع مرقي,26.356025,50.045018,Pakistani Restaurant,No rating,0.11510150839087718
52126b1d11d2c9d7602de086,Crispy Meal (كرسبي ميل),26.358176,50.044548,Fast Food Restaurant,5.5,0.9931568540163366
5c1b3848b9b37b002c881ce0,Sara Pastris,26.359235,50.043499,Restaurant,No rating,0.9852266727402607
57aa32ba498e18807053ece6,مطعم لاهوري,26.354405,50.043237,Indian Chinese Restaurant,No rating,0.6520658846914372
522386cb11d276abad69c3ea,Taybah Restaurant (مطعم طيبة),26.353599,50.048481,Middle Eastern Restaurant,No rating,0.9748739556696655
5a578f3a2105c30fa8fa4508,شاورما ريف الطيب,26.35366,50.048465,Shawarma Restaurant,No rating,0.866201484579628
62da7a2d937f2d26486681b4,الركن الجنوبي - دهليز,26.353555,50.048609,Restaurant,No rating,0.4502086072489725
63500dfc83b99755b2fb91e7,Attractive,26.353106,50.048898,Burger Joint,No rating,0.715062168066009
5f174537ddbc78712404008c,دهليزْ,26.352877,50.049086,Restaurant,No rating,0.8213328087956684
5c6c432b1c0b34002cab5781,مطعم مشويات عاشور,26.352754,50.049119,Shawarma Restaurant,No rating,0.02849067737827793
536cb7f8498e4aea59201a99,مضغوط كبساتي,26.362995,50.047714,Middle Eastern Restaurant,No rating,0.925812429472115
5cadb61cc4df1d002cadd82a,مطاعم أبو هلال,26.358499,50.063461,Yemeni Restaurant,9.0,0.9938194279088547
5b5c5894d1a402002cb14639,مطعم العصر الحديث 2,26.358884,50.06401,Restaurant,8.6,0.9906307910511114
5c44b0ca8b98fd002cce4951,Alkarak,26.362895,50.072419,Restaurant,8.8,0.9957967968693383
55cc9c0f498e94385620e5a2,مطعم شواية الخليج,26.366841,50.068477,Middle Eastern Restaurant,9.3,0.9990164918782934
5b5dd9a560d11b003901840e,مطعم مضغوط حاشيكم,26.359902,50.065754,Restaurant,7.7,0.9919973497044299
54aec191498e554ac67013e1,مطبق ومعصوب ركن الديرة,26.368592,50.066949,Yemeni Restaurant,8.9,0.9913968921143355
5b9cf994396de0002cac435d,McDonald’s (ماكدونالدز),26.366274,50.069633,Fast Food Restaurant,8.5,0.9980329837565869
5a2169b11c0b34450edfac36,روائع امواج البحار,26.363308,50.070949,Seafood Restaurant,8.1,0.9872040417007444
579679fd498e4e735a88a41d,بروستد كرم,26.362692,50.070165,Fried Chicken Joint,7.9,0.9897818682513225
5a4a4fb0031320556f32b359,Curve Burger (كيرف برجر),26.368577,50.067013,Burger Joint,8.3,0.9850092656817782
5298d4fe498ec023d0ea1f5d,معجنات فواحة,26.364799,50.070259,Bakery,8.0,0.9769030882155022
5e639b1d65c2c3000837cc4e,Alroshanah (الروشنّة),26.363851,50.073941,Middle Eastern Restaurant,8.1,0.9558249562597704
52d15c60498ec84b0da1330f,وادي الدور للاكلات الشعبية,26.369314,50.066344,Arepa Restaurant,8.2,0.9941507148551137
5d570f310ae78d000744a3d2,Chicken Firrie,26.365682,50.074701,Fried Chicken Joint,8.1,0.9559595415816882
5a43680c8194fc667beb1e7d,Hungry Bunny,26.36437,50.071319,Fast Food Restaurant,7.9,0.9951445756938908
5ee8c33cacbeed0008d66466,مشويات الرافدين,26.361799,50.069809,Iraqi Restaurant,7.6,0.9937469588893605
5b2e320a826444002cbd7c1b,درب السمج,26.354445,50.077135,Seafood Restaurant,7.9,0.9459277587402813
595258a5851de53388b581dc,Herfy (هرفي),26.359883,50.073924,Fast Food Restaurant,7.7,0.9903202095389935
5d47521a50c12d00096b0ea8,باسكن روبنز,26.364032,50.071527,Ice Cream Parlor,7.8,0.9551830878013935
5a945e839e3b652cb8c75df1,SD’s Burger,26.364325,50.072219,Burger Joint,7.7,0.9725135361775697
5cad0117d69ed0002cea6553,كشري مزنة,26.36764,50.067793,Egyptian Restaurant,7.7,0.9676063482861077
5b12ee0ff15b51002c7b18ec,maestro shawarma sandwich (مايسترو شاورما ساندويتش),26.363111,50.072717,Shawarma Restaurant,7.6,0.9653080450964355
537ba155498eeca2266be020,ماكدونالدز,26.370113,50.06566,Burger Joint,7.5,0.9873179215885209
5aae8b264c954c318f29ce72,Falafel Pie,26.36342,50.073582,Falafel Restaurant,7.3,0.9409066909610427
5c7d32688a6f17002cf9bb1e,Maestro Pizza,26.364631,50.071191,Pizzeria,7.1,0.4097398362200159
5c56f02cc876c8002cf1d79f,مطعم الشيف بندر,26.35819,50.062833,Halal Restaurant,6.5,0.9681964531591316
5bb50106d0a149002c440f40,McDonald’s (ماكدونالدز),26.367462,50.0721,Burger Joint,7.1,0.9795637365026452
59c391857918714821abecfb,Happy Land Broasted,26.364586,50.07209,Fried Chicken Joint,6.8,0.9447579017113041
567be59f498ea57016d06a96,Mishwar Resturant (مطعم مشوار),26.364599,50.070371,Middle Eastern Restaurant,6.8,0.9658774445353183
