Business ID,Name,Latitude,Longitude,Category,Rating,Popularity
57c6ebaf498e35841d656d24,coffee valley (وادي القهوة),26.250352,50.202656,Coffee Shop,8.5,0.9835172405155246
4f93faafe4b015eb3e04e556,al-kharj international coffee house (مقهى الخرج العالمي),26.260022,50.197641,Coffee Shop,No rating,0.9326912238073171
62c4a4963e2a294ed8a25d2f,espresso station (اسبريسو ستيشن),26.241778,50.214466,Coffee Shop,8.8,0.968299495246803
5f6e3c929227c33c89239843,cesario coffee,26.255965,50.220532,Coffee Shop,8.6,0.9912826743152015
5f41fd2c99f7251476c30e9c,sun room cafe & restaurant,26.255705,50.220895,Café,6.2,0.29022682581630993
6133afd3c0e9dc3f2d462769,كافيه ذكريات,26.254626,50.209183,Café,No rating,0.03823849901679588
5f3e692d39214b2703c424cd,art,26.254266,50.212366,Café,No rating,0.7691536929647674
5ef63d2cd1870d0008c84891,darts cafe (دارتس كافيه),26.255207,50.203506,Coffee Shop,No rating,0.9557620771282925
5f97ed2d107f3c6dc6c1a5aa,blue sky,26.254914,50.214438,Coffee Shop,No rating,0.963778008792475
51d85eeb498ec7482aec3a8f,aquab cafe ramada hotel,26.255103,50.218399,Café,No rating,0.2018136045390213
52e56a48498e19014f51c2f7,الرواف,26.259432,50.204581,Café,No rating,0.2966145213612054
543ccc2d498e5113f8dc9b45,joffrey's (جوفريز),26.269111,50.018763,Coffee Shop,6.8,0.9745223698431144
5d3809611c78ae00084d8aac,rosario,26.265339,50.020159,Coffee Shop,No rating,0.9917404149616379
61f8be34193ca25cbbd24f02,1oak at baker hughes,26.264224,50.022215,Café,No rating,0.9939342503064642
61f8bdc29daab04bf6ef478f,1oak,26.264361,50.022595,Café,No rating,0.806559452372758
50a1f2bce4b0f0dfd03020f4,joffrey's (جوفريز),26.268864,50.027983,Coffee Shop,6.7,0.578222243230558
63f2ef65001dde000e771e69,starbucks (ستاربكس),26.264333,50.067991,Coffee Shop,7.7,0.3331422219619089
60f2f1e74c6f467a2461f883,rovingo,26.265446,50.070539,Coffee Shop,No rating,0.9862830245884329
5fdb1e34d064bc7c9bc80d44,accelent cafe,26.275405,50.071502,Café,No rating,0.92290733239198
5346a815498e0f5092dc2163,swiss coffe,26.263484,50.139647,Café,No rating,0.9989969962067651
6032ae77fe87f20035e807ae,al-taam coffee and flour mill (مطاحن وبن التام),26.273722,50.185155,Café,No rating,0.9437256547387933
5691111a498e17b93542801e,barn's (بارن كافيه),26.266281,50.203846,Coffee Shop,8.4,0.9798850214801919
52ff58c211d2964d6130488b,caffè nero,26.274295,50.200446,Coffee Shop,8.2,0.9853959744993174
58133f0638fae1f20d72985a,شاي جمر,26.274829,50.185198,Tea Room,7.6,0.9926604125699828
5cae56c1911fc4002c178ee6,deawaniyat gdoe (ديوانية قدوع),26.269075,50.19019,Coffee Shop,No rating,0.5443944840370236
5e42f7f6bf4bc500086b4741,ديوانية فن الزعفران,26.269137,50.19041,Coffee Shop,No rating,0.6744529752883857
5dee3c9cecb0ba000850bd55,الشبة,26.26673,50.19417,Café,No rating,0.8792850790947008
5bb118e06dcf04002c25d857,قهوة الشيوخ,26.270306,50.192228,Café,No rating,0.18586941546323318
584ee0bc0037eb460ec981a7,ديوانية وقت القهوة,26.271939,50.195694,Café,No rating,0.09481344171540938
63fe4920a7b0730de255d38f,اوراق الشاي الفاخرة,26.274264,50.184789,Tea Room,No rating,0.9573527385679037
6023528b76ef3a60befcfdc4,coffee only,26.273196,50.200791,Coffee Shop,No rating,0.8694279881264012
5fd7e8e41709c5513f4babc2,love coffe,26.266142,50.203234,Coffee Shop,No rating,0.507483623702108
5a2eca761ffe9731e447acc8,برنس الشرق,26.279398,50.190786,Café,No rating,0.9710048721834647
5a81936c5d891b6e3feabf99,starbucks (ستاربكس),26.268738,50.216005,Coffee Shop,9.1,0.9852832504602899
5b3ce9e52b274a002c0b3ac7,ستاربكس,26.266237,50.213014,Coffee Shop,8.1,0.9937250284941321
59ca4ddc98fbfc7a18a814d0,vicoli boutique (ڤيكولي بوتيك),26.272916,50.216325,Café,8.8,0.9570145664508211
5dd5672fc61ceb00088c19b5,shathrat cafe (شذرات كافيه),26.275161,50.218922,Café,9.0,0.9718690898160093
6333de8145a3df6999ec49cb,ستاربكس,26.272397,50.206836,Coffee Shop,7.9,0.8931376110018662
5789215e498e67265b7749be,tea time,26.277549,50.211453,Coffee Shop,8.5,0.9755639333174685
4ef0e9a99a52cecf43832c2b,sea rock (صخر البحر),26.261907,50.219034,Café,8.0,0.936949687503914
59089ae95d891b37234c78cb,sunroom cafe and restaurant,26.271953,50.221238,Café,7.6,0.9774677170877119
594b2492f870fd0be7305aee,drag coffee (دراق كوفي),26.269137,50.216254,Coffee Shop,6.4,0.9255019350960033
523d43c4498e8150c147db1e,azeem cafeteria,26.277812,50.213213,Tea Room,6.3,0.9234353277138312
5fd8efe8e7f86f465ef9ab89,بيت الكيف للقهوة,26.265413,50.209797,Coffee Shop,No rating,0.8801367718340201
57c329a5498e444ba10c5ce9,ديوانية المشراق,26.265613,50.210393,Café,No rating,0.9571147655966233
4df3c8781fc7b84e0ea7a58d,cafe vergnano,26.268964,50.2127,Café,No rating,0.8931501358950915
4fa91065e4b08cc7d9ad228f,dr. cafe (د. كيف),26.267476,50.213858,Café,No rating,0.8760411317493518
6333de452d18bd7c27392bf1,statbucks,26.271912,50.205979,Coffee Shop,No rating,0.7354241555090743
518e05a2498e36a3b7c0fc44,la mode coffee,26.267111,50.215659,Coffee Shop,No rating,0.8707681517015068
645747a8a386ab60a3e55a55,cofffee,26.274446,50.205603,Coffee Shop,No rating,0.7905086359138789
644ce1cf1889856df5f92055,density,26.274618,50.205582,Coffee Shop,No rating,0.1878859232725041
646b00e440b90e1e3d0106d1,قهوة عُمق,26.274735,50.205421,Coffee Shop,No rating,0.9126388697536354
63abd0176b85824ca2ad22df,مقهى ومحمصة شرق,26.274785,50.205435,Coffee Shop,No rating,0.9509775679162336
5d0fd6488be3b0002389be50,فلورنس,26.275352,50.211497,Café,No rating,0.6218609486354129
631cc9a21c4fbe3d29803e01,vroulik,26.269432,50.218829,Coffee Shop,No rating,0.008191280169336556
6431b46983f93028fee2097c,iraqi tea (جاي عراقي),26.274384,50.215571,Tea Room,No rating,0.12269385403489436
4ca8e960f47ea14397187a21,snolardo caffee,26.277059,50.213705,Café,No rating,0.5934294410140154
518d3123498e5f6932424436,dr. cafe,26.275465,50.216483,Café,No rating,0.910647411730815
61ab3cb9a5efe429a8c99b76,golden tea (كرك الذهبي),26.277475,50.212968,Coffee Shop,No rating,0.907265690559988
5226fc3e11d22aa24ba799b8,مندوش صبيخه,26.277427,50.2129,Café,No rating,0.5341240715922897
4fc25ccfe4b07c20ea1ebd4c,noor cafe,26.277766,50.213402,Café,No rating,0.8991495597500031
53df8e0c498e414188bd0aa9,dhamki chayakada,26.277827,50.21315,Tea Room,No rating,0.22787790734083993
4dd2d60bd4c01eb457dbb2fb,al amwaj suites,26.277092,50.21523,Café,No rating,0.9616362520509513
61c79c0506c40a5273017880,woods,26.278907,50.209022,Café,No rating,0.8760661815358024
5d86db55b4965100085136c3,الصقيلي,26.272629,50.220825,Coffee Shop,No rating,0.37225235154870306
60fdf56dc5ce8e754a750448,shrq coffee,26.279408,50.208267,Coffee Shop,No rating,0.8944777745769718
56730d22498e586245fe893c,cinnzeo (سينزيو),26.279542,50.208452,Coffee Shop,No rating,0.9050112097794366
5f62d15c0ed4c262cb268bb8,24 cafe,26.295317,50.035247,Café,8.5,0.9994824363991512
5c649d5b57a537002cfd84c9,tamper cafe,26.295318,50.03572,Café,8.2,0.993446722856159
5db4be39e55508000839c6e2,alkarak,26.295346,50.034411,Coffee Shop,8.0,0.9999663238752804
52b99bde498e570c7e76040c,derby café (دربي كافيه),26.294947,50.034872,Coffee Shop,7.3,0.9989473601952736
520844dc11d27cd9ec2e58b1,dharan restaurant,26.28121,50.026434,Café,No rating,0.9320955944781643
4e006f7788776240d3f1b0e1,قهوة بوهيثم,26.294869,50.034478,Coffee Shop,6.0,0.9996768059292787
610b3830ccb3023c80562493,ديوانية الكيف,26.295454,50.034678,Tea Room,No rating,0.3543787222076835
5a22b7f0603d2a62d4cfd78c,ديوانية الشيوخ للقهوة العربي,26.284161,50.060261,Café,No rating,0.8251294551724835
6101910c892b76360e4fe66a,shrq coffee roasters (مقهى و محمصة شرق),26.290108,50.100756,Coffee Shop,8.8,0.9849173553719008
5208ace011d28afd4318206c,snak bar,26.290935,50.105595,Café,No rating,0.8035123966942149
4ed764d07ee53b380fae3858,corsini cafè,26.292353,50.103239,Café,No rating,0.4807851239669422
519ed26c2fc6c029649a6e95,كرسبي كريم,26.280212,50.117581,Café,No rating,0.5257771643954627
5a7a8756acb00b0492561a93,caffè florian,26.292934,50.124689,Café,No rating,0.6553719008264463
518737a0498ea191b71cf14b,coffee valley - peace hawk,26.289288,50.132148,Café,No rating,0.8890495867768595
50c97348e4b0537a2c716287,coffee valley,26.284767,50.150349,Coffee Shop,7.2,0.8597107438016529
52a2eee111d282859ffb7ad7,tonino lamborghini,26.287993,50.1394,Café,No rating,0.005371900826446281
61b5e186f7d0dc50aab327b2,coffee map,26.294922,50.128693,Coffee Shop,No rating,0.9322314049586777
5e32823fd6a1a80007d83401,كاس بن ( المستشفى ),26.283876,50.150229,Coffee Shop,No rating,0.9659090909090909
4f036fe8f790570bd58e4643,كنافة التاج الذهبي,26.29488,50.16275,Café,No rating,0.34308187522701367
600d79518d453c64cce7f645,rosalie (روزالي),26.29052,50.178126,Café,8.4,0.9790458536340978
58cd174c297c16730ce8c3e9,7 grams (٧ جرام),26.290708,50.18091,Coffee Shop,8.6,0.9931739331922196
4c373192ae2da593505ffec5,le cafe (لو كافيه),26.290677,50.1808,Café,8.1,0.9294472764619681
500708b2e4b0664ebec97452,chuao lounge,26.290694,50.181445,Café,8.0,0.9536954697461204
5323111d498e3d13916759ef,coffee valley (وادي القهوه),26.293647,50.172109,Coffee Shop,7.8,0.9768414724264476
4edcf5d661af8a14b95c3161,civilization cafe (مقهى الحضارة),26.291414,50.18037,Coffee Shop,7.8,0.9675981012261871
609cffe1c79876504dac003b,starbucks (ستاربكس),26.29055,50.178351,Coffee Shop,7.7,0.944502198118761
594308abd8fe7a0f3ac3fba8,ماما روتي كافية,26.285842,50.183664,Café,7.7,0.9345323831114339
5ba3555d46e1b6002cdfb3b1,gladio (قلاديو),26.291368,50.180323,Coffee Shop,7.6,0.8920103706115905
4c2c803257a9c9b69878f767,ستاربكس,26.291276,50.179994,Coffee Shop,7.5,0.05558547613381596
56e32189cd104059d360b85e,tuxedo restaurant&cafe (تكسيدو),26.292074,50.18002,Café,7.5,0.9364486917749026
51f6ea62498ea165500c8987,barzan café (مقهى برزان),26.290831,50.180878,Café,7.5,0.9525932791422953
4f77efa3e4b0a84b146a363c,pianolla café,26.292129,50.174338,Coffee Shop,7.0,0.9447652208764921
4c0404379a7920a166acd079,costa coffee (كوستا كوفي),26.290199,50.181232,Coffee Shop,7.0,0.9416089477837202
53a31aa4498e8775e913efdd,le café,26.292721,50.180913,Café,8.5,0.9623877456444684
59513475535d6f26aa9d3fdb,molten (مولتن),26.290509,50.181021,Café,6.8,0.8884157262559337
59ad10229ef8ef7b9da9104d,molten chocolate cafe - al rashid mall,26.290708,50.18091,Café,6.1,0.9083804060570384
5048a89ee4b0e98bbf1f9a9b,segafredo zanetti espresso,26.286579,50.183942,Coffee Shop,6.1,0.9671847797497526
59244e408173cb087c99bf27,kunefeci (كنافجي),26.291337,50.179977,Café,5.9,0.9219949649929234
518a74cb498e98bcac044422,pianola,26.291102,50.176202,Café,No rating,0.8752270136897083
55b7d549498e4b389422532a,country restaurant & bakery,26.290109,50.181008,Café,5.7,0.8599842186345361
53d90cf8498ed408f28d2224,al-rashid avenue coffee & bar,26.288802,50.179758,Café,No rating,0.8660212171691236
4ff09b82e4b0ef320d85be90,etab coffee,26.28453,50.182267,Coffee Shop,No rating,0.8874513094775867
617d77b78457ad6fcb070964,ديوانية سجّة بال,26.281122,50.181843,Café,No rating,0.860284816071943
57718c6c498eeb2c0af9f992,شاي الفور الصيني الفاخر,26.29037,50.180409,Tea Room,No rating,0.12481056098996757
59b196cb6f706a03868c5686,madeira speciality café,26.286547,50.182416,Coffee Shop,No rating,0.966107638932378
5749e794498e18ae9e62a95d,كافيه بالراشد مابي اقول اي واحد,26.290262,50.180614,Coffee Shop,No rating,0.8682506481632244
5b2a5c75e4c459002cc973b3,weekend cafe (ويك اند كافيه),26.290662,50.180391,Café,No rating,0.07422251725304042
5ab65bce8b98fd355750848a,dipn fly,26.291352,50.179914,Coffee Shop,No rating,0.6864392981049836
5d9f7ff3f1f8cf000841edd6,الموروث الشعبي,26.291,50.18042,Café,No rating,0.002667802256985759
5899c697a36ecd78d4ed650d,مركاز مدير كبير,26.291337,50.179977,Café,No rating,0.10810235342743703
5273c4d811d2010154794cd4,sedo cafe (سدو كافيه),26.290831,50.180878,Café,5.5,0.8662842399268547
5ff89cd2a6930e53ea957cfd,حصير الراشد,26.290708,50.18091,Coffee Shop,No rating,0.6918500519783068
5ba549b0c21cb1002c2b5546,شاي 90 بلاس,26.290693,50.180973,Café,No rating,0.7682268508660963
5134e906e4b0e80cee39a3fc,مقهى بلكون,26.290708,50.18091,Café,No rating,0.4745431545196077
5d8e255a52f64b00085056bc,sn street cafe,26.291675,50.180243,Café,No rating,0.19079169850077027
60d202897b3c2b5b92144cf2,rosaline,26.289883,50.181813,Café,No rating,0.8979471700003757
504a2ca7e4b04a78aef068a1,tasty yogurt,26.291691,50.180416,Coffee Shop,No rating,0.1662303828859859
4f2ae5a5e4b0ba948871afe2,haagen dazs,26.290939,50.181145,Café,No rating,0.7230245112160418
59fd77dd6dcf047e262be204,الرواق الشعبي,26.291691,50.180416,Café,No rating,0.5060933605541013
5153045ee4b032fd61cb8ce4,avenue coffee bar,26.292443,50.179687,Café,No rating,0.8385791761125236
57bc7bf2498ebb1e4178d496,kurtos cafe,26.291569,50.18092,Coffee Shop,No rating,0.44989416465224635
5afc4b552d270e001cbda33e,guzel,26.291722,50.180998,Tea Room,No rating,0.023434075224508712
53dbe69f498effcb4025f076,القهوه السويسريه,26.28684,50.183815,Coffee Shop,No rating,0.9623000713918913
51342c4ae4b0fb518e570fad,club lounge,26.286307,50.187673,Tea Room,8.8,0.9837552134868051
5ee189cfe5ce65387d66fa1d,blue sky,26.285347,50.194241,Coffee Shop,8.4,0.9842937838954923
4fb7a656e4b093a90ed632a3,مقهى قدوع,26.284312,50.18926,Café,7.6,0.9684998935384076
643807b6fe987d4505752d8e,unleash coffee,26.281435,50.20057,Coffee Shop,8.8,0.9730714795656367
5f0db12db5c3dd682b0fba89,cassia (كاسيا),26.282297,50.199468,Coffee Shop,8.3,0.9270925965356145
52add88c11d2265326421997,swiss coffee (القهوة السويسرية),26.290516,50.187395,Coffee Shop,7.2,0.9101965155747047
5aa64734fc9e943015ed1a57,ستاربكس,26.284123,50.198339,Coffee Shop,7.1,0.6297766811537931
5ee056155d2b4f34ddf37842,golden tea,26.284513,50.189856,Tea Room,No rating,0.9885898222717652
4e8c82a4b803540e78647ff4,rumors,26.286063,50.188918,Café,No rating,0.9326661740208665
622847e9accac21e5db129a2,melange,26.284563,50.192642,Café,No rating,0.9414335992785662
521a4b15498e1554d418e2c9,godou3 cafe (قدوع كافيه),26.286784,50.188316,Café,No rating,0.9092070490099072
569a2f8f498ed27f4d964a05,saudia crew lounge (coral),26.286015,50.187455,Café,No rating,0.8766298017309403
53300c66498ed0db02f55fd7,rumours,26.286782,50.186427,Coffee Shop,No rating,0.9011284928795982
61ddb7138a6e963708416a73,صهوه شاهي بخار,26.286275,50.195232,Tea Room,No rating,0.9749251637629789
63d8055434e5d95f33639ee8,كرك ياسر,26.284536,50.18478,Tea Room,No rating,0.9555366290502374
4f47dd12e4b0e44505259a46,league sports cafe,26.289318,50.187355,Café,No rating,0.9534073972019389
5b9bc0a401bc5a002c4c5ab7,grandeur coffee,26.289825,50.187399,Coffee Shop,No rating,0.9033078243007978
50d81626e4b07f4e6ccb66ce,كرك,26.290457,50.188827,Café,No rating,0.956400846682782
56390501cd1031b69b8d6cf6,mammaroti cafe',26.286518,50.183958,Coffee Shop,No rating,0.9675229518668353
5bfa7839a35dce002c98b59e,coffee shop,26.281894,50.196859,Coffee Shop,No rating,0.9912200498490751
628fb890d98d8119593c69f6,have coffee,26.287608,50.198096,Coffee Shop,No rating,0.976290377124535
5f6e27b46e051e4598999f99,مقهى العميد الشرقي,26.290434,50.19627,Coffee Shop,No rating,0.35500557357748525
644180e3362e4b706be2949c,تكية وسمرة للشاي المختص,26.291742,50.198156,Café,No rating,0.9750879873749076
5d69c666ad156400082fe8bb,ارابيا كافيه,26.28406,50.210689,Coffee Shop,9.4,0.9850578023822347
6326182035189d5eb43e6b7a,shahil (شهل),26.291851,50.20881,Tea Room,9.1,0.9852707255670645
60216e72e7682c7230da5470,maramia (مرَاميّه),26.289403,50.216415,Tea Room,9.3,0.9654062449117621
5b433ab5b3c961002c291ed2,24 cafe (قهوة ٢٤),26.284406,50.218504,Coffee Shop,9.2,0.9969815007327063
6096ecc6fd12f559b7f98e52,starbucks (ستاربكس),26.288657,50.216227,Coffee Shop,8.8,0.9815508322791549
61f22eca05d0a23207c57e82,maskob (مسكُوب),26.288521,50.21792,Tea Room,9.1,0.9954409388659962
5dfa6df13d744d0008a86726,starbucks reserve (ستاربكس ريزيرڤ),26.28304,50.219394,Coffee Shop,9.4,0.9892285918262547
61b42242a9c01665efd2e7fe,dyjor roasters (محمصة دَيْجُور),26.288549,50.21758,Coffee Shop,8.9,0.994025625931539
5e6d30dd37d92d0008025c49,tea time (وقت الشاي),26.282608,50.217619,Tea Room,8.7,0.989065768214326
5ed60ebe7e749f000790f9e7,black horse coffee roasters (محمصة الخيل الأسود),26.28542,50.218593,Coffee Shop,8.9,0.978532333011861
60b2ec0a77c2c3219c9c21a6,koffiqa coffee roasters (مقهى و محمصة كوفيكا),26.283817,50.220222,Coffee Shop,9.2,0.9947019701657044
623075e60eb66923bf60ebec,qaf coffee roasters (محمصة ومقهى قاف),26.283475,50.220952,Coffee Shop,9.4,0.9879886273969515
6423087669e8852f2a65caf5,older (اولدر),26.290647,50.217389,Tea Room,8.8,0.9838554126326073
6230729072692f668ec3b49a,methods (ميثودز),26.282662,50.220466,Coffee Shop,9.0,0.950075775604013
61b79c85f848980aba81b75b,meem coffee (مِيم),26.289472,50.216453,Coffee Shop,8.4,0.9613857541864456
6367f47a181d982ebabc861b,soir,26.282272,50.221471,Café,9.0,0.9933367568041482
5e28a16f1f56fb00089045d4,dose (دوز),26.283117,50.220022,Coffee Shop,8.6,0.9586678523565587
63500bf598911525a73c46c4,zoliea (زُولِية),26.298005,50.209832,Coffee Shop,9.4,0.9958417354492053
6206d98ebca67470521ef1dc,chaichi (چايچي),26.296435,50.208783,Tea Room,8.8,0.9841810598564648
6307706c070fc155241a0f68,ayk (أيك),26.282031,50.222102,Café,9.0,0.9214689194774615
61e1be948009267bf3c72982,almasaa tea (شاي المساء),26.284622,50.218689,Tea Room,8.4,0.9912701494219762
646d04064723d15733ce15f0,balalet (بلاليط),26.297512,50.212848,Tea Room,8.6,0.9791460527799001
5cc7cfe275eee4002c9b014c,ستاربكس,26.289013,50.21912,Coffee Shop,8.2,0.9740985208101101
618033cfb7c6515bdb86c4a0,café bateel (بتيل),26.281989,50.221626,Café,8.4,0.9619744241680339
61877a047b3f850902da4625,manto rose (manto rose),26.281672,50.222398,Café,8.5,0.9678986986635939
5c59e23161e53b002bbf556d,address cafè,26.285127,50.217902,Café,7.8,0.9354842749965556
4bf190d0324cc9b6e82fcc92,mondo (موندو),26.286802,50.218348,Café,7.8,0.9452161170326023
5cb07a8af05ca8002da2375c,bisket,26.291562,50.216982,Coffee Shop,7.8,0.9592064227652459
4fde25d8e4b019980353a04d,ستاربكس,26.289165,50.216195,Coffee Shop,7.5,0.9699402562593153
4ba121ddf964a520f29a37e3,costa coffee (كوستا كوفى),26.291703,50.22019,Coffee Shop,7.6,0.9709923472902393
4c928a72f600236aa9e7bd32,segafredo (سيقافريدو),26.291319,50.220114,Coffee Shop,7.6,0.9766911737077442
54e869bb498e7c3cfcc92abe,viola cafè (ڤيولا كافيه),26.286464,50.218319,Coffee Shop,7.0,0.9369121128242381
5262b7d311d2d444254c5b09,jasmine coffee shop (مقهى الياسمين),26.291145,50.214909,Café,6.5,0.9337683646246916
5c51321fa35dce002ce863c5,hawaya cafe,26.282832,50.211011,Café,No rating,0.9390914442454378
5c5319c961e53b002cbc02a7,scratch winter nights,26.282426,50.205571,Coffee Shop,No rating,0.42396763567590584
51a5a447e4b0b301344bf848,ع كافيه,26.282186,50.210826,Café,No rating,0.9124509963552561
6352bb6a52741f447632b653,istikanh4,26.284115,50.204106,Café,No rating,0.967948798236495
4f265acfe4b0acaffa14622a,joffre's,26.281016,50.207829,Coffee Shop,No rating,0.981600931852056
5ffff6b75856d95fb155d48f,مقهى قدر,26.287241,50.212038,Coffee Shop,No rating,0.16040630753622825
60a444d71bae5702baa83926,coffeekov,26.28021,50.208292,Coffee Shop,No rating,0.9818389048233364
6431d77993e18f5eed92e32c,iraqi tea (جاي عراقي),26.293538,50.219764,Coffee Shop,9.0,0.9945767212334515
615325ac77d0c24eba5c34f6,half million (هاف مليون),26.29513143624868,50.22073713345232,Coffee Shop,9.0,0.9992234566200323
4e95d7280aaf41f391a1c69e,شاهي أم عبدالله,26.29659,50.22304,Coffee Shop,9.1,0.9581418068410967
62eda2e00dd547639edc4f84,كيف التوأم,26.296096,50.21861,Tea Room,9.5,0.9988602347164991
622229d7cdf81c2e55e79693,line espresso bar (لاين اسبريسو بار),26.296109,50.21903,Coffee Shop,9.3,0.9974449217820418
636c18c19e8875018a4e4bef,tell a tale (تيل ا تيل),26.296472,50.219226,Café,9.3,0.98331684222392
575b1c62498ebf2f6b6ed588,london café (لندن كافيه),26.286433,50.218209,Café,7.5,0.8705928031963528
625322b83ee7e6422270b599,cafficha (كافيشا),26.295656,50.220624,Coffee Shop,7.7,0.8636790621359953
5fa262f3ecac1841d28220ff,starbucks (ستاربكس),26.293852,50.218919,Coffee Shop,7.5,0.8956551145401486
5abfe2d12aff3128d33aace0,solin_caffe,26.297112,50.222549,Coffee Shop,7.5,0.926453826981125
5f185e04377350287f3cb24e,seven degrees cafe,26.29542,50.22075,Coffee Shop,7.2,0.8998509537706191
58158b1838fa9e810ff7326a,كوستا كوفي,26.294251,50.217989,Coffee Shop,6.8,0.2115830212547438
4eb6965ce30006eb129a62ff,melodies coffee,26.285639,50.222901,Café,No rating,0.16133314963489936
4f397a5ce4b0f4cfe0b82829,كورنيش الخبر | ديربي كافيه,26.28418,50.222517,Coffee Shop,No rating,0.8635913878834183
5c8d19e7bcbf7a002cf61d21,hhrmpso,26.287482,50.222418,Café,No rating,0.941208151200511
52da4109498ead184d113b8f,mug café,26.287155,50.218315,Café,No rating,0.8875890833030649
57362fdb498eeb5eb81c9524,چاي ٢٤ ساعه,26.310846,50.048656,Café,No rating,0.2782324478854334
60ee631063408a232420f678,joffrey’s,26.307907,50.093333,Coffee Shop,No rating,0.6049275628593631
63c409ffba085a04cd886f64,10°,26.299981,50.098426,Coffee Shop,No rating,0.6043388429752066
6421f1df48fef603a37cecad,zoliea the hills,26.2984,50.107824,Coffee Shop,No rating,0.824793388429752
5e0c975ac7fdea000a60ea88,starbucks (ستاربكس),26.305252,50.129422,Coffee Shop,9.4,0.9989669421487604
635531b918f2d50e9c8240c1,shrq coffee roasters - kings park branch,26.305041,50.130629,Coffee Shop,8.9,0.993801652892562
612a8c6617992e0eebf88669,sharq coffee roasters (مقهى ومحمصة شرق),26.308906,50.129648,Coffee Shop,9.0,0.9892561983471074
55c798cc498e63aa7da58759,seattle's best coffee,26.309109,50.128939,Coffee Shop,7.4,0.865495867768595
5472f809498e7269b2946dec,costa (كوستا ارامكو),26.309062,50.128656,Coffee Shop,7.2,0.8533057851239669
632065f2eca83b5c510826d2,dose,26.30508,50.118656,Coffee Shop,No rating,0.11012396694214877
5ee7214dd7054d000856f56e,ستاربكس,26.300505,50.120509,Coffee Shop,No rating,0.903305785123967
4d4e9c079a2a6ea82e2c246f,carlton nutrition center,26.3043,50.130028,Café,5.9,0.7929752066115703
616e941212742605523846d2,um rashid cafe,26.308729,50.125299,Café,No rating,0.04772727272727273
59b901b40a08ab51879f991c,joffrey's-updc building,26.307985,50.127403,Coffee Shop,No rating,0.3340909090909091
63a06c996b8c1210f0c76641,maskob,26.307584,50.127997,Tea Room,No rating,0.8557851239669422
5d5177fbebb98a0008e36be6,lark,26.304837,50.129709,Coffee Shop,No rating,0.8181818181818182
63a17ce441518b31a11705f8,مسكوب,26.308127,50.128393,Tea Room,No rating,0.1103305785123967
5c7c1be40fe7a0002c79100c,scratch cafe,26.308785,50.128138,Café,No rating,0.6097107438016529
5c7e8d7b4940bc002cb2453e,scratch karak & coffee,26.308341,50.129259,Coffee Shop,No rating,0.8537190082644628
62fb1e24a9371d35a1500516,joffrey's,26.313944,50.121536,Coffee Shop,No rating,0.8770661157024794
6081de1cd5413a3307cc65cd,olabs coffee truck,26.308777,50.12946,Coffee Shop,No rating,0.8559917355371901
5c975dd28c812a002c1b79a3,üshk,26.309125,50.129112,Café,No rating,0.2487603305785124
63d608da2790aa48c369e5dd,ستاربكس,26.314142,50.122852,Coffee Shop,No rating,0.878099173553719
56974de2498eecf002975fc9,starbucks (ستاربكس),26.31102,50.132454,Coffee Shop,8.1,0.9233471074380165
63b3fcbc27911461210de5df,ستاربكس,26.310076,50.136838,Coffee Shop,7.9,0.7628099173553718
5fa22822af124707b9326a8a,tim hortons (تيم هورتنز),26.310303,50.136601,Coffee Shop,7.8,0.9760330578512396
539e7090498eda0a5fa2d225,joffrey's,26.31194,50.131266,Coffee Shop,8.1,0.9913223140495868
5dd3b36636222900074db7c1,illy coffee,26.300468,50.147992,Coffee Shop,7.1,0.6299586776859504
50e3b335e4b0439f159c327d,cafe liwan (كافيه ليوان),26.311732,50.136402,Coffee Shop,6.9,0.8712809917355372
54798e34498eb17c04fbd5ca,costa cafe (كوستا كوفي),26.309297,50.131489,Coffee Shop,6.5,0.9134297520661157
4da87463fa8c4175d0ba0f24,cinnabon/ seattles best coffee,26.315383,50.131541,Café,7.3,0.740020791322754
5af7da6bc876c8002cadc061,caffe vergnano 1882,26.309689,50.136763,Coffee Shop,No rating,0.6913223140495868
5354b809498ef17c75f96ff8,joffrey's (جوفريز),26.310011,50.136619,Coffee Shop,No rating,0.16487603305785123
59759c6112c8f0189a72ac15,ستاربكس,26.302494,50.146041,Coffee Shop,No rating,0.29793388429752066
507be96be4b07204c26ab8a6,cafe jamoca,26.305367,50.145817,Café,No rating,0.6692148760330578
633950966dfec51b5d202e10,saudi coffeehouse,26.311194,50.132759,Coffee Shop,No rating,0.8024793388429752
619c8f530ffa9178d5ce69b5,dose (دوز),26.311296,50.132384,Coffee Shop,No rating,0.9894628099173554
614867a34b042705c4da2a56,lacafe,26.308154,50.144939,Coffee Shop,No rating,0.5803719008264463
5b96086ec0f163002c217762,uptown966,26.305293,50.14755,Café,No rating,0.012190082644628099
5c7c9bfd3183940025bf1c68,ستاربكس,26.306967,50.146814,Coffee Shop,No rating,0.426770055801145
59e5ce07031320502aa16419,coffee library,26.305554,50.147658,Café,No rating,0.8483471074380166
5e55a2c40ccb230008c0e0c1,غرفة أحمد ومحمود,26.312385,50.142021,Tea Room,No rating,0.7235537190082645
6315d5d283334315dff71d64,alaa’s cake,26.300153,50.148307,Coffee Shop,No rating,0.8404958677685951
622595d4bec25b5033b6487c,ستاربكس,26.31232,50.130188,Coffee Shop,No rating,0.7861570247933884
5bf2e1cb8c35dc002c078854,coffee stop,26.300069,50.148451,Coffee Shop,No rating,0.058057851239669424
5bd929239ba3e5002c5b1b27,joffrey's (جوفريز),26.300069,50.148451,Coffee Shop,No rating,0.10909090909090909
505f4eb0e4b008dd847d2300,cinnzeo,26.311867,50.145347,Café,No rating,0.013241125133291232
543fd0f6498eff06d4b10437,زاوية الكيف,26.314338,50.142511,Tea Room,No rating,0.6289256198347107
61b0866c0ac4536082e9dc57,8oz coffee,26.304103,50.168187,Coffee Shop,9.3,0.9952405405743916
5d74c9302c8f0d00088d21e8,ستاربكس,26.314222,50.147741,Coffee Shop,7.6,0.8678372138767819
51bccca7498e5023e4aad9d3,mammaroti (مآمآ روتي),26.305765,50.167921,Café,7.1,0.08928996380305858
4ebe7c192c5b252c1904bd20,cafe vergnano 1882,26.304136,50.16823,Café,6.3,0.9470197016570434
54aadced498e8f0d536b9112,كافيه فيرنيانو,26.304696,50.16141,Café,No rating,0.9309502636490024
59c8b9f5be70784687e8d7f4,كوستا كوفي,26.303553,50.168738,Coffee Shop,6.9,0.9571523402762991
501d9486e4b0ad6cc8fbe1a4,pj's coffee,26.308127,50.164583,Café,No rating,0.912313222529778
515d6c36e4b08c3125cb63cb,akwab,26.313163,50.14926,Café,No rating,0.4244406944602611
506479bd498ee7dbb89ccb20,aquab,26.314398,50.153425,Café,No rating,0.42166305532245335
4eba7f35f5b9ea8ad76e8704,conino lamborghini,26.305656,50.167181,Café,No rating,0.5724502448616625
5fd4b9202d1b2f1d67fb1c33,crépe & dip,26.305472,50.167466,Café,No rating,0.8767801004496437
50364901e4b00d1850c8ab23,cinnabon/seattle's best,26.305765,50.167921,Café,No rating,0.7490261895517341
532c9b47498ec9b31f729c51,yogberry - dh mall,26.304136,50.16823,Café,No rating,0.5687428764669781
61d17bf7e043915a7bae6776,muh café the house of pudd,26.306107,50.167847,Café,No rating,0.5758444909257149
61c717ee6de00c61f038c4a7,soul & soul,26.306158,50.167965,Tea Room,No rating,0.6706454077478989
5fd1075bdab11304afbdb2bb,crepe & dip,26.304644,50.16851,Café,No rating,0.88034969501885
5c0caa6d724750002ce18c2f,قهوة مكيال,26.314222,50.147741,Coffee Shop,No rating,0.9739836220015943
5ff4bf38a6930e53ea6630b3,mamma bunz cafe,26.306149,50.168233,Café,No rating,0.8828671985571322
4e304db5e4cdb5a70d714286,ستاربكس,26.306149,50.168233,Coffee Shop,No rating,0.7742012249345575
61d7389d821b6e0ba2c5928f,muh cafe,26.306499,50.168098,Coffee Shop,No rating,0.8684134717751532
53723c27498e71c4de1931b5,ستاربكس,26.303584,50.168848,Coffee Shop,No rating,0.46643954860284814
5363fc45498e4036c4c7bd79,atlantis cafe,26.303446,50.168723,Café,No rating,0.08999135782367455
5d6f870c7c763a0008f8fbe0,takeoff cafe,26.314083,50.1476,Café,No rating,0.8871243257793008
534e6e25498ea65c880e792a,cuba havana,26.306641,50.16834,Café,No rating,0.11995090241855688
61560f18362a3d1f27d2a924,rural (رورال),26.305245,50.167666,Coffee Shop,5.1,0.42082388747635924
61069efb633c6d1850d0de5a,alshabba (الشبّة),26.30368,50.175089,Café,9.0,0.9600080159316642
6024ffd3d06e7d7cf786a895,zoya (زويا),26.303561,50.169328,Coffee Shop,9.0,0.9972695732768878
5b721deaf193c0002c49966f,van houtte café (فان هوت كافيه),26.300607,50.172346,Café,8.7,0.9758645307548753
5d0e5f7a9250e40023d39f1d,a plus (آي بلس),26.299565,50.174274,Coffee Shop,9.2,0.9990355832216531
61b222020ac453608235d7ad,ben’s cookies,26.303537,50.170626,Coffee Shop,8.4,0.9946142959131273
5b655178d03360002ce42bc1,tim hortons (تيم هورتنز),26.305677,50.172077,Coffee Shop,8.7,0.9885271978056387
6012e1092c36ee5dc0a7dac3,lily (ليلي),26.306108,50.1722,Coffee Shop,8.5,0.9954910384388973
6113e4a763e5d3023325756a,starbucks (ستاربكس),26.307338,50.173058,Coffee Shop,8.8,0.9930361593667414
6099a160cecd5a047969a737,mound,26.305497,50.178332,Coffee Shop,9.3,0.9936123044551045
5f30f28f4624834155e6ecdb,ratio speciality coffee (ريشيو للقهوة المختصة),26.305739,50.172061,Coffee Shop,8.3,0.9346451071504616
5d4f1b78525fb80008a41cfa,gravity lounge,26.307034,50.176208,Café,9.0,0.9976828947533223
60fd9591e4c4366244597430,pluma cafè (پلوما),26.302857,50.176287,Coffee Shop,8.4,0.955035633321226
6358049d0de5c03503cdf62f,starbucks (ستاربكس),26.30203,50.17745,Coffee Shop,8.6,0.9865106899963678
610825787022351b3733914b,boad coffee roasters (مقهى و محمصة بُعد),26.305397,50.178167,Coffee Shop,8.8,0.9941258250773413
6132bb7f5bb4517acd2da6c7,overdose (أوڤردوز),26.300645,50.171967,Coffee Shop,8.0,0.9535702208138676
6006caa0bbf56e13f93509f3,matter speciality coffee (ماتر للقهوة المختصة),26.302638,50.176674,Coffee Shop,8.3,0.9726205834095264
6416447f3c29da2c70b5ce75,llama (لاما),26.303217,50.181088,Coffee Shop,9.2,0.9984970128129658
59d26abec876c857cf0609d4,caffeination (كافينيشن),26.307375,50.178835,Coffee Shop,8.8,0.9932866572312471
5c3a27e92619ee002c43b822,the hub (coffee truck),26.303764,50.178544,Coffee Shop,8.4,0.9342067358875765
56fa3e41498e8b45fd01b046,marks & spencer coffee (ماركس & سبنسر كافيه),26.307846,50.17381,Coffee Shop,8.3,0.992885860648038
5bd75488947c05002cf34060,tim hortons,26.299082,50.181486,Coffee Shop,9.1,0.9849325534499819
636fdbc906da8b5665506312,tulum (تولوم),26.308906,50.169742,Coffee Shop,8.5,0.9908443030523165
62bc702cbc24b634b1b03bdf,the usual (ذي يوجول),26.305565,50.183432,Coffee Shop,9.4,0.9961673826730627
607df923b803cb4491253518,7 grams (٧ جرام),26.305571,50.183189,Coffee Shop,9.2,0.9941633997570171
63754e8723dfe800cf567e4a,la pazzia (لا بازيا),26.306224,50.18003,Coffee Shop,8.3,0.9721571623601909
61f6d31163f5ba30cd545ca0,de floré (دي فلور),26.305748,50.183144,Coffee Shop,8.4,0.9898297867010684
5b634d81b3d8e2003911395f,the coffee bike,26.302722,50.180471,Coffee Shop,8.0,0.8888415726255934
61c8aa182ab2981755f2a692,sword (سورد),26.306253,50.183136,Coffee Shop,8.2,0.9714933430192507
625e954226ed3554e1e895d2,grnter (قرنتر),26.305984,50.183903,Café,8.3,0.8335316441427337
63d589c9a34493716cb01aa9,شاي عطرة,26.29863,50.180933,Tea Room,7.9,0.9773549930486842
4bf943aec07c9c7449ffbbef,krispy kreme (كرسبي كريم),26.309626,50.171926,Café,7.6,0.9783820342931576
4e6fac19a809952e23f89b66,segafredo-mall of dhahran,26.304385,50.170527,Coffee Shop,6.7,0.9259027316792124
5c3a1d7de4c459002b85fcfc,كوستا كوفي,26.310345,50.169197,Coffee Shop,6.9,0.1860197141819366
516ee50be4b03303f194e4d7,جوفريز,26.312644,50.178219,Coffee Shop,7.0,0.9531568993374332
62211f79d022b71e1b1ea441,ganache (قناش),26.306129,50.183046,Café,6.7,0.9069400433361305
51d8201c498e96dcb3bcc1d2,cinnzeo,26.30955,50.172713,Café,6.2,0.5087486379178617
53a86cca498e11062f6db2d5,cinnabon dh-mall,26.304769,50.170603,Café,No rating,0.9502260743227164
53f7742c498e240441b63550,cinabon | dhahran mall,26.305138,50.170979,Café,No rating,0.9049736350997608
60b1443b1f4d1207ac6d3eeb,impresso cafe,26.300562,50.170074,Café,No rating,0.9363234428426498
5e5e1ee203634e0008bc026c,atypical (اتيبكل),26.30599,50.190239,Coffee Shop,9.0,0.9997996017083954
5ee8a20677a3530007e8ffc8,abu saif tea,26.29994,50.193362,Tea Room,9.1,0.9879510527172756
631a120eac1af96c13e28095,archi (ارتشي),26.298652,50.189677,Coffee Shop,9.2,0.9903934068962063
5dfb40f9549d4900080e659b,starbucks (ستاربكس),26.299397,50.188723,Coffee Shop,8.5,0.9686752420435616
4d921abc80d337044e2aac06,shatea teashop (الشاطئ شاي بخار),26.30082,50.197794,Tea Room,9.0,0.9949274182437595
547a2745498ea1c91b822edc,tea time (وقت الشاي),26.299792,50.198477,Tea Room,9.2,0.9968061522275523
4bdc05e263c5c9b6f0362a68,starbucks (ستاربكس),26.30457,50.199171,Coffee Shop,9.0,0.9844816572938716
633f432bfc58c14d12901b5d,rasmat shai (رسمة شاي),26.302376,50.197158,Tea Room,8.4,0.9934244310567253
63ef7dbcfcab330a97525d7a,olden (اولدن),26.301878,50.201303,Coffee Shop,9.6,0.9994614295913128
6318d367ffe00a48c04eab16,aged coffee house,26.299294,50.202342,Coffee Shop,9.1,0.9779186132438221
5b64d5ab66fc65002c6f52dc,golden karak (كرك الذهبي),26.299223,50.198449,Tea Room,8.4,0.9817637554639846
5a737a5dcf72a046ad423c4c,cine cafe (سيني كافيه),26.305227,50.19528,Café,7.9,0.8828922483435828
5aa821c073fe256ba463d8ce,the coffeze (مقهى القهوات),26.298439,50.197888,Coffee Shop,8.0,0.9596573189213562
5cf41d460e3239002b206627,zest (زيست),26.305139,50.194913,Café,7.5,0.8855851003870192
5ffb6e704e9eaa768054db12,verno (ڤيرنو),26.312474,50.191725,Café,7.7,0.2048822033792162
5dbc416391ff820008d60668,oxford | 13,26.305166,50.195768,Coffee Shop,6.9,0.8968700291830012
5f30ad4bbf1a075d8d6cb1e7,قهوة عُمق,26.300809,50.187644,Coffee Shop,No rating,0.9417216718227477
61929aadd625e7392054c178,derby coffee,26.299819,50.188802,Coffee Shop,No rating,0.9430367856114027
5aa134918fb09e1b06d62c1f,القهوة العربية,26.305288,50.195264,Coffee Shop,No rating,0.8485990906927519
60fac6dc3a551302c72bed49,waffleecious,26.306825,50.194969,Coffee Shop,No rating,0.32087523953858293
62698bb26f755e0484330413,conch,26.302666,50.197141,Coffee Shop,No rating,0.07999649302989692
5cd6e0bede3bbf002c77662c,pastel (باستيل),26.302418,50.197375,Café,No rating,0.9249383149008654
63faf741a43cec6aeee9d6cb,شاي وخبز العقربية,26.297274,50.194584,Tea Room,No rating,0.9296226249671221
61844c1c5492e50c17dd18e3,ذكرى,26.300512,50.181262,Coffee Shop,No rating,0.885885697824426
5af5e174286fda002ca8e486,bloom olaya pop-up,26.302691,50.180361,Coffee Shop,No rating,0.9243245951328265
5f57d9460ad7f53c9a5173c2,cup,26.301078,50.180371,Coffee Shop,No rating,0.42924061572375094
5fdce729ad3f04387f021264,rose tea,26.299832,50.179576,Tea Room,No rating,0.7520697386054784
61dca011fb135c44fd54d7d2,nass (نَصّ),26.302977,50.211757,Coffee Shop,9.4,0.9996994025625932
5bcc956dc8b2fb002c2ac57c,organico speciality coffee (قهوة اورقانيكو المختصة),26.303736,50.210663,Coffee Shop,8.8,0.982126977367518
63e51de5693b6f3b38e6c170,ojar (أوجَار),26.30042,50.20838,Tea Room,8.8,0.989591813729788
5a701dee7247506a9b84e071,olabs (اولابز),26.303277,50.206322,Coffee Shop,8.4,0.9846945804787014
62209c0d91ab104fa44efa69,maramia villa (مرَاميّة ڤيلا),26.298142,50.212785,Tea Room,9.5,0.9855963727909219
63280159caeb105ec4958ff6,sallel (صليل),26.29815,50.212928,Tea Room,9.4,0.9694517854235293
63cea3f73a0bae55d677ddff,umq coffee (قهوة عُمق),26.297826,50.212496,Coffee Shop,9.3,0.9925602134241805
622e18a61a6eff5d890dd4f5,mylk (ميلك),26.302492,50.21375,Coffee Shop,8.7,0.9921468919477462
56f53889498ed9041dd4c4fb,ستاربكس,26.300423,50.215308,Coffee Shop,8.8,0.988276699941133
6377918192531b04905cfb43,vial (فِيال),26.300346,50.216621,Tea Room,9.1,0.992184466627422
5c2ba4ebe7a237003909e99b,balancd coffee (بالنسد كوفي),26.305186,50.217246,Coffee Shop,9.3,0.9993487055522852
63e70e4c4f6aa649ea9bcc37,bohemia (بوهيميا),26.299565,50.214963,Coffee Shop,8.7,0.9958667852356559
5b9f3a5bdeb4950025d43572,hk coffee house,26.307761,50.211613,Coffee Shop,8.5,0.9633897371024912
62339571c7c11e3ec6c6c259,loaf (لوف),26.308062,50.211854,Coffee Shop,8.5,0.9728585563808069
63e299a187ae69092d631572,panama (بنما),26.299744,50.212176,Coffee Shop,8.2,0.9957916358763041
5dd0188dfecec900082d0ff2,hobra (هوبرا),26.309177,50.214547,Coffee Shop,8.9,0.9901804837113763
63864dd02e948d58091ba7e0,sdf (سدف),26.298113,50.21815,Tea Room,9.5,0.9949900427098859
6213ce72dda85a16a2a6d0c1,شاهي t1,26.2968,50.217331,Café,9.2,0.9823399005523478
5e5a1fd2c237e8000887d94e,andes coffee roasters (محمصة و مقهى أنديز),26.29783,50.219115,Coffee Shop,9.6,0.9986848862113451
59ad9d1c86bc494d39e9519d,specialty bean cafe (محمصة سبيشلتي بين),26.300319,50.219761,Coffee Shop,9.3,0.9930236344735162
59c80a1ec5b11c38a60b2cfd,شاي بخار,26.300059,50.220596,Tea Room,9.4,0.9970816998785086
641767c1b6cf5138d1704ce1,owl bakehouse,26.29947,50.215326,Coffee Shop,8.3,0.990606330081036
5dc1a1ba5f60c40008ec3243,ستاربكس,26.310773,50.212948,Coffee Shop,8.6,0.97431144399494
645d49f56816d904c047861c,‏sikkat karak (سكة كرك),26.300735,50.214888,Tea Room,8.2,0.9860222191605816
5a5b5fcc0457b76a1a1320c1,sensations coffee & co (سنسيشنز كوفي آند كو),26.299705,50.220394,Coffee Shop,9.0,0.9871870342305332
60282e1509cfe5629f5c18f8,peek-a-brew (بيك-أ-برو),26.3092,50.219423,Coffee Shop,8.9,0.9880262020766273
621603edba9dd639982de98d,lluvia (يوڤيا),26.309265,50.220214,Coffee Shop,9.1,0.9969439260530304
5b7fafae464d65002c8ff1b2,danube le gourmet,26.304514,50.222378,Café,9.1,0.9960546586340352
55b27f19498e095b0169edcb,nespresso (نسبريسو),26.302641,50.22228,Coffee Shop,9.1,0.9816510314249571
5ccf2d4ac876c8002cf15b2f,صهوه,26.297769,50.219131,Tea Room,8.6,0.9875252063476159
58caaa8315fb435cb5699c20,chemistry coffee (كيمستري كوفي),26.302902,50.222152,Coffee Shop,8.6,0.987049260405055
61360300983f974547995bc8,rhythm coffee roasters (قهوة و محمصة رِيذم),26.303128,50.223737,Coffee Shop,9.4,0.960483961874225
5dcc35722369640008f2c0c1,tulum (تولوم),26.303594,50.223328,Coffee Shop,8.9,0.9960671835272604
5dcf0bbe46bdd300087014ba,monroe (مونرو),26.306498,50.224632,Coffee Shop,9.0,0.9844190328277451
5c9bd336d8096e002c4bca23,adrs,26.303305,50.227356,Café,8.2,0.9401059605966859
5c854bb0cb3fd2002bea8766,concrete (كونكريت),26.302903,50.223568,Coffee Shop,8.5,0.9330920203905262
628676291d74af4fb40ef759,sharik café (شارك كافيه),26.309689,50.223518,Coffee Shop,9.2,0.9957791109830789
623b2150c6e49459e41e39ec,the blk. (the blk),26.31012,50.224268,Coffee Shop,9.3,0.9927606117157851
63711c20bf9bb523c26417fe,eclipse (إكلبس),26.309511,50.223659,Coffee Shop,9.1,0.999298605979384
631e40ddafdcb61527764b1a,inside (ان سايد),26.310537,50.224136,Coffee Shop,9.2,0.994376322941847
605cee2a298fbc26c92b5ee5,archi (ارتشي),26.309359,50.222512,Coffee Shop,8.9,0.9985846870655428
5de91a6de829d100087bbf90,shrq coffee roasters (مقهى ومحمصة شرق),26.311596,50.223059,Coffee Shop,9.3,0.9994489046980874
628ba413068bfb384c5d8a33,oob (او او بي),26.310512,50.224067,Coffee Shop,8.8,0.9972570483836626
518b8259498e94d9acb1fae9,latitude 26,26.301597,50.223497,Café,7.9,0.96004559061134
5c152d576dcf04002c94907c,دربي كافيه,26.305686,50.227499,Coffee Shop,7.9,0.9455918638293609
5a4f930b0336937b6622d412,layers - premium chocolate,26.303086,50.22234,Coffee Shop,8.0,0.9282699364987913
5a16bb993c858d332caa9075,cosmo (كوزمو),26.310797,50.223505,Coffee Shop,8.7,0.9949649929234353
5194833d498e8ed406129319,le cafe de paris le meridien alkhobar,26.301644,50.224016,Café,7.7,0.9462932578499769
5fcd1f2f463a7966ed65fb26,dokkan pop-up (دكان بوب اب),26.308099,50.229404,Coffee Shop,8.2,0.9503638481481945
63efbde396814909479baedc,el-gamaleya (الجمّالية),26.313295,50.223627,Tea Room,8.7,0.9861224183063839
636be3779e51085531c61b35,zoya (زويا),26.313638,50.223643,Coffee Shop,8.7,0.9531193246577573
5dbcbdea2847c500087446d4,coffee expertise (خبرة القهوة),26.308175,50.228381,Coffee Shop,8.0,0.9462055835973998
63038bfa51da3a7bfbd244d6,tim hortons,26.321822,50.021235,Coffee Shop,8.0,0.7757083846655555
6326b135141f9444f091a93a,tim hortons - kfmmc,26.320817,50.021526,Café,7.9,0.9996547369949387
5f96b95763d29f09156c9f71,dose,26.321856,50.017809,Coffee Shop,6.5,0.9612238132812374
52e910b7498eba2000b92021,brioche,26.320529,50.016148,Café,No rating,0.31016349771278534
61addb86d27dbc40b4449c6e,48avenue- قهوة ٤٨,26.321977,50.019379,Coffee Shop,No rating,0.9835666365872437
54e588c9498e574ef7c9aa1e,prince sultan cafè,26.323138,50.020371,Coffee Shop,No rating,0.9653908668330003
5982a858b9a5a866d58ea121,kasbon (كاسبن),26.321249,50.021995,Coffee Shop,5.3,0.9924752824753597
60696b718b9d271de00004c0,ستاربكس,26.323933,50.059692,Coffee Shop,7.7,0.7135351523378829
5720a0d6498ec1f044b7f4bc,starbucks (ستاربكس),26.328694,50.109358,Coffee Shop,8.1,0.9287182838931932
5ca5cd163d4791002c07255a,paul,26.328863,50.109372,Café,6.6,0.28610255568695947
56b70250498e68d95c09f980,joffrey's (جوفريز),26.322422,50.109356,Coffee Shop,No rating,0.3671487603305785
6114ab1bb811476398fe9ba1,scratch,26.32873,50.109259,Coffee Shop,No rating,0.6234861366492632
56136d7a498ee51d7c158d44,cafe jamoka by pattis france,26.329722,50.108436,Coffee Shop,No rating,0.856597388285438
5d78898fa369d40008a2b900,mt,26.33023,50.108716,Café,No rating,0.583225655006353
56b6ddb0498e8bc7cbce0dd7,joffrey's (جوفريز),26.316734,50.119307,Coffee Shop,No rating,0.8710743801652893
52144e7811d2cf6a67f9a552,dhahran heights tea & coffee stand,26.316672,50.119087,Tea Room,No rating,0.5473140495867769
57381463498e57bcfe66c8dc,joffrey's coffee shop,26.316951,50.12055,Coffee Shop,No rating,0.03140495867768595
5d8a12a5e0eb300007f74dee,ستاربكس,26.331385,50.132707,Coffee Shop,8.8,0.9400991790295363
5bc62a4d1acf11002c9b708d,ستاربكس,26.327805,50.147985,Coffee Shop,6.9,0.9203166293007352
5c31bafaad910e002c99f9a2,caffe’ vergnano,26.323209,50.133677,Coffee Shop,No rating,0.09793388429752066
5c722458065ef5003949b9a4,caffe vergnano 1882,26.325457,50.136513,Coffee Shop,No rating,0.6657418239416935
6295c55eb810787c5d8833d0,دوز كافيه,26.325548,50.136522,Café,No rating,0.9715507334900044
60dca54c98486633018edeba,ninety cafè,26.330439,50.139625,Coffee Shop,No rating,0.9068048409305022
5c62f203840fc2002cda165d,royal waltz cafe,26.314281,50.146071,Café,No rating,0.469402544697856
5e218a475a31530008331568,max café,26.314114,50.14771,Coffee Shop,No rating,0.9262679490232212
52f7170d498e640ab790cb30,جوفريز الاوريا,26.314945,50.148791,Coffee Shop,No rating,0.6249107078152661
51763d13498ea8f6de58bb6c,karak time (وقت الكرك),26.322425,50.158048,Tea Room,8.3,0.9836174396613269
5bf6c7bbe0c0c9002cb05c93,starbucks (ستاربكس),26.3234,50.16423,Coffee Shop,9.2,0.9877256046392204
5dac66f79a2ad20008d5dcb5,tim hortons,26.323339,50.164955,Coffee Shop,8.5,0.9820894026878421
574744a4498e07ee3fefc893,ديوانية الساحل,26.323848,50.16618,Café,8.3,0.9728710812740321
5cbb33f0531593002c7e40f0,spark coffee drive thru,26.332617,50.161098,Coffee Shop,8.4,0.9947771195250561
58248ea7b244c810a020535d,ديوانية كيف القيصيرية,26.333111,50.149566,Café,8.3,0.98869483295891
607a12458c20a47089646cd0,kyan (كيان),26.330769,50.161804,Coffee Shop,8.2,0.9778559887776956
51f9585e498e0b6fa96cd974,كوستا كوفي,26.318063,50.159668,Coffee Shop,7.0,0.872446487393695
516edec5498e93c2c5f470b4,derby caffee (دربي كافيه),26.33231,50.161652,Coffee Shop,7.2,0.9667714582733182
63dd3936fe1be560de279a61,حديقة الذهب,26.322264,50.157174,Café,No rating,0.45218622011247356
5266c9be11d2000d042fd604,جباتي وكرك,26.32267,50.157511,Café,No rating,0.9357723475407372
5f29b5638101276da0a81ea1,region coffee (ريجون كوفي),26.322241,50.158097,Coffee Shop,No rating,0.9370498866497163
503a2c7ee4b0451d7d61fe7f,كوستا كوفي,26.323616,50.164764,Coffee Shop,6.0,0.9033954985533749
628277e224523b3a55c25568,حلونجي السلطان,26.322614,50.159148,Café,No rating,0.6838967447802508
5fbba2566c35412a7d882e1a,barbaros,26.322828,50.160896,Coffee Shop,No rating,0.1431219548853346
54673318498ece6194b8061c,الرواف المغربي,26.323259,50.161491,Coffee Shop,No rating,0.8175123057075938
57b4b451498efbe189e6876b,قهوة الشيوخ,26.323444,50.162388,Café,No rating,0.9228216079457923
5e100c10e81527000754b443,تيم هورتينز,26.323724,50.165031,Coffee Shop,No rating,0.9169098583434576
57420242cd10716efd6ffef9,diwaniyah alsofayan,26.330293,50.158578,Café,No rating,0.4975012838015556
4bfbb17dbbb7c92802640843,joffrey's cafe,26.309998,50.149738,Coffee Shop,No rating,0.7884732848135994
521ce51511d235da80a2c9f9,azzo's tea room,26.318564,50.167805,Tea Room,No rating,0.8818777319923348
58d9a5b7e0adac0d2577bd43,دربي-محطة ناف,26.331311,50.161973,Coffee Shop,No rating,0.5437682393757594
6102fd1a5388824d140e31ab,barbros,26.331522,50.16246,Coffee Shop,No rating,0.597362257486755
4e18b843ae6092c276553752,durbai,26.332417,50.161446,Coffee Shop,No rating,0.6455455217244273
5be9798d86f4cc002c3cb284,spark,26.332417,50.161446,Coffee Shop,No rating,0.32798937889054497
5a227a2fa6031c4b2ec2e899,ديوانية تكية,26.33311,50.148385,Coffee Shop,No rating,0.5342209062768524
52d0fedb498ea034fe339383,liwan café (قهوة الليوان),26.323405,50.168954,Café,No rating,0.9508147443043048
5169a73be4b0ad0b58a2c69b,بيت الدونات -مجمع ناف,26.330989,50.16259,Café,No rating,0.8829418280827803
50e74985e4b0979c89402476,barn's (بارن كافيه),26.322756,50.179696,Coffee Shop,8.8,0.9933492816973736
5e077f0e8eca85000860c75b,beyond,26.32838,50.180226,Coffee Shop,9.1,0.9967560526546512
5c475c864c9be6002c9b7d04,density coffee roasters (محمصة ومقهى دينسيتي),26.328687,50.180382,Coffee Shop,9.1,0.996179907566288
5cb1d4b765cdf8002bbf6ead,coffee map (كوفي ماب),26.328733,50.180429,Coffee Shop,8.9,0.8836437419370999
5c7bb36ff2554e0039ca2991,day & night cafè,26.328995,50.180537,Coffee Shop,8.5,0.7467967585576333
5b7c6c51419a9e002c355dc4,dip n dip,26.309162,50.169567,Café,7.6,0.9072531656667627
577397f8498e5897db02c5ec,simit sarayı,26.307383,50.171924,Coffee Shop,7.2,0.5868789218571911
5c7922b8bf7dde002cbaa44c,c house resturant,26.307689,50.171135,Café,7.1,0.1861199133277389
52d3a1ba11d2f129fadb812a,nespresso (نسبريسو),26.307688,50.170427,Coffee Shop,6.9,0.41813103543292296
5f1b0ea6ac7d6f07a47eb1fb,godiva,26.32838,50.180226,Coffee Shop,6.7,0.862614446211846
53f3a56d498e80b91f127a61,great american cookies,26.321104,50.172276,Coffee Shop,No rating,0.43168296990268157
6178a6e86aa49453aa5cb65a,بارنز,26.322795,50.179707,Coffee Shop,No rating,0.5415889079545597
5cd5c2f583e380002c7eb1fe,baba karak,26.328244,50.167741,Tea Room,No rating,0.8229105346876918
5cb1d5ef8194fc002c8e0c64,el león cafe,26.327535,50.180389,Café,No rating,0.22096416628048246
5ef057fb8d0fc40008b59b0f,wallflower (وولفلاور),26.327888,50.180356,Coffee Shop,5.5,0.9310003632219035
60e207801dbe9e357fca4521,cinnzeo,26.328256,50.180341,Café,No rating,0.7180020290327025
4fcf3143e4b0a3d4c2accdc1,espresso cafè,26.309901,50.171026,Café,No rating,0.4305432046191806
5d7fcc4b36e5fa0008ec44ae,spot coffee,26.309732,50.170776,Café,No rating,0.8148946030235092
4f90553ce4b00b6013240c53,donuts & coffee,26.309702,50.170902,Café,No rating,0.1613832492078005
5c4724c9dab4b1002cfa8271,coffee bene,26.309869,50.1695,Coffee Shop,No rating,0.877406345110908
4f3fafc8e4b0714790b5a983,crepes coffee,26.309243,50.173266,Café,No rating,0.07233125837602235
585bced9469aef7d53321ad4,tea gschwendner,26.308936,50.173583,Tea Room,No rating,0.4586866396963966
600d9019a913930449111543,tutti café,26.307965,50.170708,Café,No rating,0.5628436517578688
55fa85ad498e96fd1c4f623a,lazord (لازورد),26.307735,50.171418,Café,No rating,0.7963702859433124
5c17890f6dcf04002c3cc0a8,the one coffee,26.311497,50.182476,Coffee Shop,No rating,0.9229969564509463
624aa3bee0f3174016328f77,vardø,26.307686,50.170997,Coffee Shop,No rating,0.4298919101714658
5fc93bb661c8875852c594db,joy box,26.307659,50.171734,Coffee Shop,No rating,0.6100499743239689
5fe398c55d62323029d834c1,giovani l,26.307594,50.168916,Coffee Shop,No rating,0.13501834896857504
5c2c71f1da5ede002cffb06e,100 cafe,26.308357,50.177396,Café,No rating,0.03708620884006964
5f2c212571da594e2fa0627f,la panetière,26.318069,50.194271,Coffee Shop,9.0,0.9991858819403565
5d150fc264380300230b81e4,the block grill & cafe (ذا بلوك جريل آند كافيه),26.318329,50.193907,Café,7.8,0.8603349156448441
620eaac1be1089503aad31b3,urth caffe (ايرث كافيه),26.317564,50.203805,Café,9.5,0.9998998008541977
5cc31d706f0aa20039201676,dose (دوز),26.317878,50.203825,Coffee Shop,9.0,0.995916884808557
6302378d67061342e7edbb13,مُر,26.316915,50.204099,Coffee Shop,9.0,0.998947908969076
572b47d2498eca06f02eccdc,al daar garden restu,26.332691,50.190432,Café,8.2,0.2031913427938027
5d6d2ff08eab220008741c8d,rflct (رفلكت),26.328334,50.180888,Coffee Shop,7.9,0.8821282298568405
56fcf1f5498ea923c8ede47e,nostalgia,26.33263,50.190448,Café,7.9,0.18549366866647463
5cc4650c033693002cedf85d,barbaros cafe,26.318575,50.193843,Coffee Shop,7.2,0.4506080835660876
5f65e78675087f58441ce151,toast & tonic,26.328817,50.180238,Café,7.8,0.78551120351699
5cb1d3eb98fbfc002ccffe9b,le café,26.327765,50.180152,Café,7.5,0.866171515887827
5d428bfd144b030008b5f2ef,ستاربكس,26.328859,50.20053,Coffee Shop,7.4,0.9088688768928245
5ca22311f1936e002c2dde9d,mokaya (موكايا),26.328518,50.179895,Café,6.9,0.5659373003845142
5c40accca8eb60002c1e8c01,sunse,26.326393,50.191731,Café,No rating,0.12541175586478126
5e73920798fd090008d7d6fe,black knight toaster,26.31315,50.191311,Café,No rating,0.5624929547475608
5c2fc6d73092be002b5c039c,scratch al-hizam althahabi,26.312443,50.191615,Coffee Shop,No rating,0.010571009882140756
520683dc11d220fd00aa937a,du paris café,26.313907,50.195776,Café,No rating,0.5512456006312546
5909cee05ba046201f159c09,nespresso beverly hills boutique & cafe,26.319979,50.200381,Café,No rating,0.9680990969551985
6255fa02e9414846ac231e48,شاهي حبق,26.322443,50.179097,Tea Room,No rating,0.07998396813667163
5af5d0d36fa81f002c0c88d8,موندو,26.313634,50.199272,Coffee Shop,No rating,0.9901554339249258
5da06229ff733200080a620b,cafe libros,26.33154,50.192092,Coffee Shop,No rating,0.18650818501772273
63498debd9663f0ef9c6e145,tyfaq cafe (مقهى تيفاق),26.328383,50.18079,Coffee Shop,No rating,0.14371062486692301
5cf1ee7565211f002c069066,the source,26.328303,50.180306,Coffee Shop,No rating,0.7685775478764043
51a3dc4a498ed4465fa66cfd,tea club,26.315876,50.199037,Café,5.1,0.7998897809396175
632b53012f3bcb1ee7e0983f,otta x dose,26.319567,50.204546,Coffee Shop,No rating,0.06326323568091582
638b5aff9ad2ff782d1c5896,mor coffee,26.31699,50.204037,Café,No rating,0.5166267957565662
640ebb26d313563fd49abfd0,ستاربكس,26.332308,50.183522,Coffee Shop,No rating,0.8811512881852682
5f469048b9d18d2170f292dc,perfect coffee,26.333841,50.187827,Café,No rating,0.9153567715835222
589de0d10593e169a55a9ef0,umq coffee (قهوة عُمق),26.321786,50.211889,Coffee Shop,9.4,0.9994363798048622
634bf9722ca6cf7c569015ae,cosmo (drive thru) (كوزمو),26.325143,50.207918,Coffee Shop,9.3,0.9962049573527386
626800a8c58d7d64004a180f,core coffee & roastery,26.325143,50.207633,Coffee Shop,8.8,0.9946769203792538
58fe0cdb610f044e3d7c83dc,dakat alkarak (دكة الكرك),26.321786,50.211889,Tea Room,8.3,0.5785498678623765
5cc14725971317003a33d20e,cofféa (كوفيا),26.324793,50.206615,Coffee Shop,8.5,0.9630265151989579
638559440ae2e8020ff858f5,equal (إيكول),26.31984,50.216692,Coffee Shop,9.3,0.9987850853571474
628d0b0cff9d065f2e58b27c,wacafe (وكف),26.319811,50.216804,Coffee Shop,9.0,0.9970065505191569
600c72773952083ba2d386ad,olden (اولدن),26.31523,50.216146,Coffee Shop,9.5,0.9997620270287196
5a7c7cb89411f27a1df68654,arabia coffee,26.314734,50.210611,Coffee Shop,8.4,0.9780188123896244
5e6ba728970a0b000884c2da,blue star cafe (بلو ستار كافيه),26.32715,50.215145,Coffee Shop,8.8,0.9917460953645371
5caaf436d0a149002c6db89f,cavo (كاڤو),26.314479,50.217111,Coffee Shop,9.0,0.9951528663218147
6404a2005701bd0f455c5ea3,تّل,26.321884,50.220768,Coffee Shop,9.3,0.9966558535088489
5d715952eac7fa00087d9bb5,vardø (vardø),26.321546,50.219743,Coffee Shop,8.9,0.9869365363660275
5cb0a7a851950e002c881297,10° coffee house (تن دقريز بيت القهوة),26.330281,50.212671,Coffee Shop,8.9,0.9924099147054771
5f356258e7bef8342602697d,sh.ft (شفت),26.321393,50.220137,Coffee Shop,8.8,0.8542853922170314
6002b7e2b50b926ccc79907b,sequence (سيكونس),26.314555,50.217032,Coffee Shop,8.6,0.9879761025037261
64263b4a30a34e121724ace2,namq (نمق),26.319378,50.22272,Coffee Shop,9.4,0.9998622261745219
642635efd4aedb2aedc50e59,willow,26.318095,50.222335,Café,9.3,0.9938628023196102
64480f8dd7232b36d7599694,qasha (‎قَشة),26.318468,50.222844,Coffee Shop,9.4,0.9965932290427224
63012babcceebb77d7d9a6b9,otoño (أوتونيو),26.320071,50.222049,Coffee Shop,9.0,0.9971317994514097
608dc89a1cd081209985166b,density coffee roasters (محمصة و مقهى دينستي),26.319682,50.222786,Coffee Shop,9.2,0.9981463158026578
62140d99e525e310c4a65d8a,20 grams coffee (20 grams),26.326519,50.215345,Coffee Shop,8.3,0.9689507896945179
6108673d0e52140e9aee0036,kyan (كيان),26.322803,50.206779,Coffee Shop,7.6,0.9852331508873887
5c421361bd4009002c612bc5,linda (ليندا),26.322605,50.218698,Coffee Shop,8.3,0.9052867574303929
613325a2b5cb4c0c1e665191,veloce (فيلوتشي),26.319932,50.222584,Café,8.9,0.9907566287997395
616d5aaf75208a675c09c47f,سقيفة,26.321519,50.220068,Coffee Shop,8.2,0.41651532420686116
5420289c498eaf47155dfe8c,the view club lounge,26.322273,50.216897,Café,7.9,0.9564384213624579
62e3f8920dd547639ed976ab,con cafe (كُوْن),26.325248,50.20742,Coffee Shop,7.5,0.2390125374181185
61ec217973b464380eead6ec,bert cafe (بيرت كافيه),26.310411,50.217008,Coffee Shop,8.3,0.9590185493668667
60d2d756112c3a063ea0e760,tim hortons (تيم هورتونز),26.310926,50.21352,Coffee Shop,8.0,0.9841434851767888
61e4e9ecb6d33317aebcd094,180° coffee & brunch,26.33054,50.213036,Coffee Shop,7.8,0.718240002003983
62545cadb1c94b2ea32aba89,dose cafe,26.332859,50.212547,Coffee Shop,7.5,0.9537079946393457
4ec7e577e5fa232a75a624b1,coffee shop company-holiday inn corniche,26.316937,50.218354,Coffee Shop,7.0,0.9256146591350308
5d2c451bea860600233c0762,كوستا كوفي,26.318119,50.216805,Coffee Shop,6.8,0.349770168209316
5ed1e742ff29d300073e3d06,bogota cafe,26.310805,50.214238,Coffee Shop,6.7,0.8730602071617339
5b0b06ca4a296a002c161267,garden cafe,26.329543,50.210976,Café,6.2,0.8976215227765183
5c29d763f870fd002cce4724,starbucks (ستاربكس),26.316542,50.223297,Coffee Shop,9.4,0.9966809032952995
6193f9c77d5c697decca9c92,ramla (رملا),26.317157,50.223023,Coffee Shop,9.1,0.9856339474705978
61bdc31480c3980ac5ee0ddd,bón coffee roasters (مقهى و محمصة بُن),26.317612,50.223465,Coffee Shop,8.7,0.9487230871356822
605b5b290bb4e33615a5d925,ballet coffee (باليه كافيه),26.317294,50.222958,Coffee Shop,8.7,0.9968938264801293
6009a68ee153a734c1a790ef,ola amor (اولا امور),26.323288,50.228905,Coffee Shop,8.1,0.9869615861524781
4fbb7a6fe4b0389cf80cc008,anter (عنتر),26.324716,50.227763,Coffee Shop,8.2,0.9446650217306898
5e1df8d7125b4c0007bd10bf,crafter (كرافتر),26.317755,50.223038,Coffee Shop,8.2,0.9935371550957528
61354fa717ce7a2afec6ec55,antr (عنتر),26.313774,50.229104,Tea Room,8.6,0.9934494808431759
61211a1a86062a68d20ffb81,density,26.319549,50.222959,Coffee Shop,7.7,0.1519394797159354
5f809bd1ebfa4e4c488c3104,above coffee bar,26.320934,50.222264,Coffee Shop,7.8,0.8543480166831577
5d7ff2aa65ba980008ace1ce,august seaside - drive thru,26.316638,50.229762,Coffee Shop,7.9,0.9590561240465425
60019388cf4c6c15313a2aea,lido (ليدو),26.314023,50.223485,Café,8.1,0.9734597512556206
628ba3875ac8360505c311b6,roshan & kyan (روشان اند كيان),26.310541,50.22406,Coffee Shop,8.5,0.9611978807880662
5d110bac2e173e0023c142fe,container cafe,26.313197,50.22854,Coffee Shop,8.1,0.9634398366753923
5f2d9947d4f69d667de7b4c5,dcafe,26.309491,50.222254,Coffee Shop,8.5,0.9655314938440149
6398c0b03860b718c386cef4,equal,26.341846,49.97053,Coffee Shop,8.9,0.9999636511669694
619693d7784ef3512051dfcd,starbucks (ستاربكس),26.34063,49.966884,Coffee Shop,9.1,0.9986435114418516
51540a1de4b00a630f9aadbe,ديوانية نايف للقهوة العربية,26.342337,49.971279,Coffee Shop,8.2,0.9996699077963996
4f8eaeb2e4b0dcea35c48712,modo (مودو),26.34186,49.971346,Café,6.1,0.9889597801435234
63aac269830d676a9f15d109,8oz specialty coffee,26.341883,49.97074,Coffee Shop,No rating,0.9984338947471686
6448a1dd816fdf31380e38e8,ديوانية جوي,26.342371,49.970978,Coffee Shop,No rating,0.8998047726577765
614eb1ed0eb82010079fa761,blue sky,26.342052,49.97049,Coffee Shop,No rating,0.9962772736837784
6425e75d29605753e1dbabbc,ايكوال,26.342335,49.96974,Coffee Shop,No rating,0.9365111886060765
62892eb615134f477e97d7ff,دانكن دونتس - الفرسان طريق الرياض,26.338232,49.960237,Coffee Shop,No rating,0.9679072131382807
6448a5657bd2181153d63e1a,ستاربكس,26.34306,49.99533,Coffee Shop,8.7,0.9999359822723585
62617ae74d17ea4db5dfbd2f,bogotá café,26.349178,50.01883,Coffee Shop,7.0,0.9887776546954749
628ff52ffedf8612998689a7,bogota cafe,26.346532,50.007476,Coffee Shop,No rating,0.17529700725650488
5aec663a123a19002ced342e,ديوانية شبرا,26.340871,50.035391,Coffee Shop,7.9,0.9864172352033791
5fecf87c9eaca51be6e57ee4,ديوانية ال مطارد,26.345946,50.034878,Café,No rating,0.5665834998395329
61aadec9a6ae37435d54acf2,dose cafe,26.347549,50.036009,Coffee Shop,No rating,0.22267659147143168
634b12668c184a0cc6be44b2,شاي استكانة مزاج,26.34374,50.040029,Tea Room,No rating,0.9771619061422671
6229f5e139e3b36104795858,chemistry coffee (كيمستري كوفي),26.345615,50.046554,Coffee Shop,9.1,0.9986023831954697
61f68b07e4991e6d8a17cae2,ستاربكس,26.345684,50.046775,Coffee Shop,8.9,0.9876595612518505
61a4f1659a822a480417f881,umq coffee (قهوة عُمق),26.347979,50.049508,Coffee Shop,9.5,0.9998964728292941
602806a8723a8779a513667c,3 gram (٣ جرام),26.350862,50.040623,Coffee Shop,8.8,0.9943784746306669
60bab8c9a5680f250f61ff93,manto rose (مانتو روز),26.346444,50.047498,Coffee Shop,No rating,0.3500771277421759
646260bf72ece73fbcb9ec4a,tea four hundred,26.347749,50.046216,Coffee Shop,No rating,0.36419823382646777
62e424d141c8f02b93e754be,coffeekov,26.347528,50.049394,Coffee Shop,No rating,0.07672398621018087
62e29f54c43bc90d391a14bc,كوڤ,26.347519,50.049471,Coffee Shop,No rating,0.7965173459774518
62e29ea9942ae9297ec0da46,coffeekov roasters (‏ مقهى ومحمصة كوڤ),26.347705,50.049665,Coffee Shop,No rating,0.49666124874473305
620002529f8e83233d2e2e24,ستاربكس,26.34792,50.050273,Coffee Shop,No rating,0.8261675276676363
62c059b61c14f156cc1e0636,almond cafe,26.34923,50.051451,Café,No rating,0.8704771567297838
61be78cf9f33c1469b574fde,blue sky,26.34927,50.05166,Café,No rating,0.964272773389376
5bd6f17e3d4791002c8307e8,كوب الفخامة,26.350393,50.053412,Coffee Shop,No rating,0.5836447775718737
548ab431498ee06c3225efd5,cafe shop (ديوانية الشيوخ),26.33774,50.073854,Café,No rating,0.9201184350832876
5f6266e38232e2415ea18383,شاهي ابو نوره,26.343069,50.079428,Tea Room,No rating,0.9229447268435601
584b333c4287c956a2be505f,دلة السلطان,26.332385,50.090291,Coffee Shop,No rating,0.4151586800924187
4fe2d52ae4b03e568c3837ec,سينابون,26.341353,50.103892,Café,No rating,0.20658271257137373
642e1d55bcc1e81387ebf066,nass (نص إثراء),26.335985,50.120734,Coffee Shop,9.5,0.9991096663319288
59df942f35811b54907c84c8,pattis france,26.335519,50.120624,Café,8.4,0.8765542016502231
5f2813c3011e3572bf5e3193,three seeds (ثري سيدز),26.33578,50.120496,Coffee Shop,8.0,0.07180644560164816
5ebaa00bb601ca0008b2bc6d,starbucks (ستاربكس),26.335379,50.131182,Coffee Shop,9.3,0.9994098951269761
60a003126c87a06682a64d10,beano,26.334877,50.121418,Café,7.7,0.8741834294410568
6179885baab3314d59040967,10°,26.335103,50.122491,Coffee Shop,7.4,0.9512801134657791
63646c3747547b28986e3574,inner circle (إنِر سيركل),26.335506,50.12296,Coffee Shop,7.0,0.8995372335469444
5e7d72ba46f93d0008ae9648,starbucks (ستاربكس),26.334401,50.122599,Coffee Shop,7.0,0.8040230658536333
61cb50f6f77e953d57b87c25,ballet coffee,26.335409,50.120019,Coffee Shop,6.7,0.8966177673330366
5e26c9bbae47d70007e62a02,jamoka café,26.334765,50.131817,Coffee Shop,7.2,0.2923607300736078
6286452158807c5ae6625766,bloom,26.335496,50.120066,Coffee Shop,No rating,0.49196111519468283
637b25999d77ba0c0fe5d509,madeleine - ithra library,26.335551,50.120394,Café,No rating,0.8683859078815235
62ced8ee7f68473de6622c17,positive truck,26.335723,50.121961,Café,No rating,0.2706924932448521
5db334a398c98d0008775b50,espressolab,26.334875,50.121621,Coffee Shop,No rating,0.9361340883914984
5c8ab1f01c0b3400397fa465,scratch,26.334629,50.12145,Coffee Shop,No rating,0.924073173004255
5c93e101a795bd002cc71865,circle cafe,26.334629,50.12145,Coffee Shop,No rating,0.0543207064694129
63c192d2e77e8c32f5dac4b1,maskob (مسكوب),26.335135,50.122382,Café,No rating,0.9453065957160457
52ceab46498ef0a939ca699e,rossete,26.347472,50.128057,Café,No rating,0.9197664427028873
57b8abe9498e2dc8c3f65b12,ستاربكس,26.344072,50.138527,Coffee Shop,8.3,0.9281935543983518
5c543347029a55003ae5aba4,brewhèmian coffee (بروهيميان كوفي),26.345095,50.146177,Coffee Shop,9.2,0.9918938225337239
5e036c01169dec0009fcb359,studenttainment coffee,26.342945,50.148161,Coffee Shop,8.8,0.945886347871999
615b323bc97412697d0f1f37,yakah café (ياكا),26.343459,50.148298,Coffee Shop,8.7,0.9081299887155384
5cf1f0913731ee002c8dce47,buzz coffee,26.345095,50.146413,Coffee Shop,8.4,0.9909517252802998
635fdc9ff536210f50670a08,graph cafe,26.348718,50.142632,Coffee Shop,8.4,0.9983021544004224
5f707ced9ce9171ec72efdaa,third coffee (قهوة ثيرد),26.343683,50.14773,Coffee Shop,8.1,0.8704357458615013
4ed3e5b68231b9ef8ca622d6,ستاربكس,26.346513,50.136052,Coffee Shop,7.5,0.9964283126106447
5be32036123a19002c09a066,sunday night (صنداي نايت),26.345325,50.146175,Coffee Shop,7.7,0.964966405433106
5f15d23bcfec5f5d1c1c8a65,glow gate,26.343238,50.148379,Coffee Shop,7.4,0.5531974366672533
5abe70fd603d2a6508e7febb,كرك بلال,26.347364,50.141561,Tea Room,6.0,0.9841914010332011
60a922731bae5702ba7dc4fc,trending,26.34331,50.134826,Café,No rating,0.05971447206319298
5bd615fe1fa763002d612411,coffee atoms,26.34484,50.138443,Café,No rating,0.6096300974190676
5942ef5393bd637616e0842b,ركن القهوة العربية الاصيلة,26.3455,50.137619,Coffee Shop,No rating,0.5074694853664344
5dc1ccd2e557ca0008bdfee7,الشبة,26.334966,50.145238,Café,No rating,0.8861511703746648
5373b7af498e3495bd6fa3b8,قهوة ديوانيتي,26.347656,50.141071,Café,No rating,0.49324485211143665
61acf1f77b754c2945eda515,lenore store,26.347567,50.141256,Coffee Shop,No rating,0.9595519344051846
5e10f884411e3500089cea80,care coffee,26.347702,50.141354,Café,No rating,0.8912550598904683
5b4b72b792e7a9002c1c1de2,flat white (فلات وايت),26.345249,50.146255,Coffee Shop,No rating,0.3621898067147723
59079870535d6f4b5768f154,i sweet cafe,26.346078,50.145446,Café,No rating,0.9051794643504187
614308b162749315ddcf6565,ستاربكس,26.338869,50.148839,Coffee Shop,No rating,0.962533516921516
63d8c01584a5f403e2f727b6,dantella,26.348194,50.143148,Café,No rating,0.5717080947894775
6249a9e19d43d1757fbe873c,caf dealer,26.343152,50.148477,Coffee Shop,No rating,0.14112823910635347
628759375c1b7c47467c3d65,villaggio,26.341098,50.150871,Café,No rating,0.7798598242108642
5fa794660284c368840cb94c,script (سكربت),26.33814,50.152793,Coffee Shop,8.5,0.9830836603066475
620510718040025201ab83a5,dose (دوز),26.338853,50.152406,Coffee Shop,8.4,0.9949168159183378
61ae62d488049e706cd349a5,mayfair (مايفير),26.339357,50.152117,Coffee Shop,8.1,0.8767923141428468
5d4d97963eb98f00080411ef,scratch (سكراتش),26.339645,50.152042,Coffee Shop,7.2,0.8861925812429472
629a34505e562503a83f1eb9,quantum specialty coffee,26.339917,50.151947,Coffee Shop,6.6,0.9686519727102378
5173ad34e4b05eedd0deb5a0,اس ان كافيه,26.340242,50.164292,Café,6.5,0.9282349652666342
618aa8af71194549d0354799,granos (غرانوس),26.338362,50.152969,Café,No rating,0.9027983394241819
62c15cb1d9492039ee43af34,dunkin' dount (دانكن دونتس),26.338873,50.152621,Coffee Shop,No rating,0.20143281604257038
5a894320b37e2b51b2fa9ce2,8 o'clock cafe,26.340447,50.154904,Coffee Shop,No rating,0.11737910614640812
5edb9656c2db8f0008c8a7bd,blue sky,26.336791,50.155511,Café,No rating,0.887579845330407
52722dac498e77d825870605,ajyal coffee (قهوة أجيال),26.339553,50.151948,Café,No rating,0.8892569854958434
5ebaf592863e09000794bc8c,ستاربكس,26.339614,50.151932,Coffee Shop,No rating,0.916629569430497
5edb956fb1b08e0007f163a9,blue sky,26.335653,50.154747,Café,No rating,0.8970111705817192
615921b4eb835b5e2b51a2c3,road cafè (قهوة الطريق),26.3348,50.153247,Coffee Shop,No rating,0.91059393537834
5bb6466fd4cc98002cc06ead,3 quarters cafe,26.346406,50.151209,Coffee Shop,No rating,0.6307392875260112
4f05d6d8be7bf2206f2d4cf2,roxy cafe (روكسي كافيه),26.341795,50.165243,Café,No rating,0.9293220005590467
564263e1498e83368356415e,cassa couch chilla,26.34962,50.152196,Tea Room,No rating,0.4476100752642531
5e24e8621c522a00089e8836,double a (دبل اي),26.34224,50.180956,Coffee Shop,8.9,0.9672724540023296
6241868a312a7255dbc25fb9,onda,26.343997,50.185243,Coffee Shop,8.9,0.990293207750404
55d4badb498e8bc13f096467,dallat alfaris cafe (مقهى دلة الفارس),26.342778,50.182055,Café,8.0,0.9837255287650244
5ae73ee64c9be6002ceb7050,rosario cafe,26.342594,50.181631,Café,7.8,0.4061071379366491
4e8e12310aaf1c98029aa01c,la mode cafe,26.340917,50.179531,Café,6.5,0.9736977242269009
5b4b7641a42362002cbe5685,oasis cafe lounge,26.335678,50.180022,Café,No rating,0.6995779110983079
640b9f15865ae41d2f77d003,aldaar garden,26.334293,50.180107,Coffee Shop,No rating,0.2910910434488546
59f61f9482a7501506367965,oro,26.332545,50.182026,Café,No rating,0.12498590949512156
5d1e29fed29cbb002314c8f9,بابا كرك,26.327784,50.168217,Café,No rating,0.028143435077215968
5595bc5c498ee9b69370ca1e,ديب ان ديب,26.350213,50.17892,Café,No rating,0.9361651465427101
5ca8f399e57ca60039a0416b,the hub (ذا هب),26.334396,50.189335,Coffee Shop,8.8,0.9413709748124397
5df7906746d2b900081b4e3d,revival (ريفايفل),26.334288,50.189068,Coffee Shop,8.7,0.8980348442529528
5f77bfb0b8d1db7dc0a74465,wogard coffee roasters (محمصة ومقهى ووقارد),26.346074,50.191229,Coffee Shop,9.1,0.9572901141017773
58f1d40c2b98444cc96f469c,ستاربكس,26.345831,50.19578,Coffee Shop,9.1,0.9809496374043412
63665f3182508059be7b0a7c,knock (نوك),26.337298,50.201441,Coffee Shop,9.2,0.997758044112674
6238fba145daf45ea397e4ac,soulaf (سُلاف),26.337207,50.201602,Coffee Shop,9.1,0.9897170626620408
60aeb046a437835788deba1e,note music center & cafe (مركز ومقهى نوت للموسيقى),26.336032,50.192987,Café,7.9,0.8994877318670859
5eff6684dc624c0007b67ba4,webrew (ويبرو),26.343517,50.203178,Coffee Shop,9.5,0.9996743527761426
5bb12471db1d81002ca96bad,65° ( sixty five degrees) cafè,26.334318,50.188942,Coffee Shop,7.9,0.9472075750554226
61256df50d35ab17f33695f0,swaj coffee roasters (محمصة و مقهى سُواج),26.343818,50.203197,Coffee Shop,9.1,0.9946268208063527
5f88905092a76b44b7241b04,to be cafe,26.35021,50.195516,Coffee Shop,9.1,0.9436379804862164
5df3d71f37aaa90008b5f5e1,trio (تريو),26.343609,50.203272,Café,8.8,0.028519181873974526
6290d9a8431c24198e79741f,khazaf tea house (شاي خزف),26.337189,50.201661,Tea Room,8.4,0.9174985283250461
5c6e4be51543c7002c6c7a8c,starbucks (ستاربكس),26.34541,50.186856,Coffee Shop,7.9,0.8766548515173909
5c0be2b612c8f0002c105b6d,la mode co,26.336461,50.197177,Coffee Shop,7.8,0.9540586916496537
56e512aa498e0feda672dd3e,derby coffee,26.335396,50.191847,Coffee Shop,7.4,0.9398429378389549
5c6d0495d4cc98002c9072b1,ستاربكس,26.335159,50.192346,Coffee Shop,7.4,0.946343357422878
6339b51f3186e816fe081759,warqat shay (ورقة شاي بخار),26.343561,50.203458,Tea Room,8.2,0.8909582795806665
5a9bfaf898fbfc5220bbd761,the geeks club,26.343993,50.203584,Coffee Shop,8.1,0.9674227527210331
5cc5ebf701bc5a002c802e04,motion cafe,26.334797,50.191473,Coffee Shop,7.3,0.9342818852469282
5af0c800da7080002cca4666,9&more,26.335191,50.203828,Café,7.6,0.6995027617389562
530a315c11d2601b86b2aa00,canary resto-cafe,26.348713,50.186756,Café,7.3,0.8703297804386217
5b27ed58fe63bd002c050bf1,oasis cafe | pearl residential compound,26.346887,50.190011,Coffee Shop,6.8,0.877894815946694
5f8719ff1f068100ae663f0b,my secret place,26.335551,50.193106,Coffee Shop,No rating,0.17817913102290803
5f8c1e55efdfce0a4fb27d29,ستاربكس,26.335239,50.187519,Coffee Shop,No rating,0.1430468055259829
629f4cfec9c6f92f0879c400,road cafe,26.335696,50.193908,Coffee Shop,No rating,0.9306120915319197
50103f04e4b025fd6f6fec98,pianolla coffee,26.337987,50.204865,Coffee Shop,6.1,0.9756015079971443
6467fa16e0fab33b19d1bb24,شاي أبو سيف,26.338552,50.20833,Tea Room,9.1,0.9976578449668717
5e502048e33d3900084ed58d,elegant garden,26.338082,50.208264,Café,8.7,0.988452048446287
58fdf80cd7627e4dd3bf7916,dose (دوز كافيه),26.338543,50.208261,Coffee Shop,8.2,0.9884770982327375
59459afa42d8c2427052c5d0,starbucks (ستاربكس),26.334167,50.212065,Coffee Shop,8.9,0.9913828734610037
6190bff7bb012269f9c806bd,lapro cafe,26.350858,50.211908,Coffee Shop,8.9,0.9833043173306948
5e541c4acf89ac0008035bf9,مقهى الحديقة الخضراء الجديد,26.338927,50.208574,Coffee Shop,7.3,0.3590385891960271
625ea0c2de92434d6035cfc9,café quindío (كافيه كينديو),26.351217,50.211122,Café,8.9,0.966282987437532
63ff724c971dd9070d501566,carpet (كاربت),26.35154,50.211723,Coffee Shop,8.8,0.973171678711439
62a60f66be8f1d1dc8191ad0,woods,26.351737,50.211276,Coffee Shop,8.6,0.8985358399819642
60ef30de06d5de213c47c6ba,jamoka café (جاموكا كافيه),26.328658,50.213919,Coffee Shop,8.3,0.1433724527498403
5ff4a14cc271ab6419155c03,first light (فيرست لايت),26.330497,50.212969,Coffee Shop,7.5,0.3038789594318708
6059b2bb753eb4189b3e29d1,jasmine café,26.330144,50.212899,Coffee Shop,7.5,0.2949361856690172
517e2b9fe4b0a6cff4d3c6c7,كوستا كوفي,26.333231,50.21237,Coffee Shop,7.1,0.004609160706904974
6419b5dfaad3184393c49a25,abo saif tea,26.338424,50.208535,Tea Room,No rating,0.021179594443957367
5097d24be4b0a7ac7293f2e0,patio lounge,26.329313,50.211214,Coffee Shop,6.0,0.8646935784872434
5fa68e2908db5a66e136ab6e,street cafe,26.337402,50.202539,Café,No rating,0.32053706742150023
50ca2277e4b0d68fddc9e4d4,choco in café,26.334521,50.212032,Café,No rating,0.043636727996893825
628905b49483142c8aa43203,aslaf,26.33725,50.201427,Café,No rating,0.40818627021204645
630a91f68b23eb7bd98d6b50,كبز,26.343792,50.203584,Coffee Shop,No rating,0.12251850552974036
623253805d7d3c76f4ff1190,dose,26.332686,50.211711,Coffee Shop,No rating,0.7820793827732618
52c6e8d8498e5fc91ba02a51,كوستا كوفي,26.333157,50.213079,Coffee Shop,No rating,0.8818401573126589
5bd0a01f088158002c18aa30,simply fresco,26.337385,50.200477,Café,No rating,0.11712027654964241
5e203fb3e04f490007cbab1b,perfect coffee (القهوة المثالية),26.332279,50.213682,Coffee Shop,No rating,0.9391791184980148
540d20a2498ec23df3caf3d1,barncafé (بارن كافيه),26.332149,50.203327,Coffee Shop,No rating,0.9121629238110746
51726e8de4b0eb7a3d7b2ad7,olai cafe,26.332664,50.214467,Café,No rating,0.8783582369960297
5ef4b9e0376fb4000786ade3,grind (قرايند),26.335175,50.225435,Coffee Shop,8.9,0.9462807329567515
62d466dce5ee1960f0b27972,off one (اوف ون),26.34572,50.226169,Coffee Shop,6.7,0.4866923009481344
61cb9ba693c44b5c5603009d,tea tea,26.339417,50.223706,Tea Room,No rating,0.9194524116681906
6223a647fa0ba36047e28705,شاهي ابو مطلق,26.342837,50.224034,Tea Room,No rating,0.08424243183326863
6386afbc43226d0254e81684,شاي أبو شعلان,26.343725,50.22495,Coffee Shop,No rating,0.49968061522275525
5f9760c6e56c373181374bdf,شاهي عويد,26.344237,50.225538,Tea Room,No rating,0.7477862251224309
60199ea4d62ce74cb1f75a0c,vip tea,26.344698,50.226008,Café,No rating,0.24312070239601208
61e070d95d9eff066e42b260,شاهي ملغم,26.3451,50.226235,Café,No rating,0.938001778534838
618d6a96dd36f146b5f22291,شاهي بوسلطان,26.345608,50.226798,Coffee Shop,No rating,0.541601432847785
63a76ecae8fc99110c8e8d78,شاهي محبوك,26.345574,50.224712,Café,No rating,0.3467767187284728
5c0139d1e1f228002c86d4a9,العربة,26.33132,50.226387,Tea Room,No rating,0.5574454227777709
511145c2e4b05285f9e0691a,lamode,26.330936,50.227018,Café,No rating,0.5595746546260694
5fe907728a637b0e62b970f7,شاهي ابو طارق,26.346018,50.222711,Café,No rating,0.40769779937626033
61d77f1ef560bd44d5a09a6e,شاي ابو عدله,26.346694,50.227974,Coffee Shop,No rating,0.8199797096729751
6171366e1eec3629f650ac2a,ستاربكس,26.329792,50.226205,Coffee Shop,No rating,0.8902944602397265
5e5216dd4c949100082dc484,starbuks,26.331286,50.220848,Coffee Shop,No rating,0.31184479152315225
5f95b49514976928a89ba4cc,special tea,26.347449,50.228415,Tea Room,No rating,0.20474442955373806
5fa73194e3bd4801bb3266e4,شاي ابو عبدالله,26.347541,50.228508,Tea Room,No rating,0.7006550519156824
5fa59d71f95377377eb77ddd,شاي ok,26.347849,50.228664,Café,No rating,0.8373141618967699
6197e0feda39863e3223074e,شاي حبق نعناع,26.348566,50.228296,Tea Room,No rating,0.7860497739256773
5fb571c33ed0bb413369141c,شاهي الزقرت,26.349032,50.229239,Tea Room,No rating,0.9178492253353541
5bad972c2b9844002cbeef6b,cornish,26.328567,50.221856,Café,No rating,0.9667839831665435
58a8b5bc23188e56b2cafb12,carnivaltruck,26.32788,50.227052,Café,No rating,0.8223594393857793
5b9ea991b399f7002cf48f00,coffee valley,26.35913,49.966586,Coffee Shop,8.4,0.999321615721919
584b060d01f433697d4b5296,مقهى قبل الوعد,26.361124,49.970739,Coffee Shop,No rating,0.998894898749282
5da6fab391051100082dbd28,ديوانية تراث الفرسان,26.355302,49.968372,Café,No rating,0.9780220904687327
5fa26acd6ef32c579bf98d7c,manto rose (مانتو روز),26.357223,49.967329,Coffee Shop,No rating,0.999501298083518
5f3ca3432ae8143e57a50f19,ديوانية تشاليت,26.36177,49.970686,Café,No rating,0.6141052868384923
54de1481498ef0b9a33104dc,the third cup,26.359407,49.966394,Coffee Shop,No rating,0.9902055422144986
5e38dd010e0967000703c894,شقة بنو قحطان,26.366576,49.965558,Café,No rating,0.5369634159431836
61534a76dbc44a06c3f6b2ed,home,26.350735,49.999826,Coffee Shop,No rating,0.6022273892885945
52efd23a11d2203926fb108e,starbucks (ستاربكس),26.356493,50.015745,Coffee Shop,9.0,0.9998625464297161
6292fb5c69677a49d1e8832e,dunkin’ donuts drive-through,26.350529,50.018764,Coffee Shop,8.5,0.999906506117842
5169372a498eb0229023db81,شاي بخار علي القرعاوي,26.351222,50.018503,Tea Room,No rating,0.8647405450588966
627bb308b61e630899108bf1,barn’s (بارنز),26.350477,50.018443,Coffee Shop,No rating,0.9982262634929452
626d97edcc65d705c67c5fd9,morocan taste,26.350569,50.018728,Tea Room,No rating,0.95607688979632
628630b0d61fdf34841055bf,دانكن,26.35053,50.018749,Coffee Shop,No rating,0.9790922428764878
634c978dfd60426f85e5282c,dunkin’,26.350656,50.018905,Coffee Shop,No rating,0.22177011027823582
5bc44e569cadd9002ca4ae90,starbucks (ستاربكس),26.366077,50.023986,Coffee Shop,7.9,0.929136040929397
4f1069c8e4b0044a2213e2a1,مقهى بوهيثم,26.364224,50.028799,Café,7.3,0.9969623015510897
4edaa68377c8274efd7bb49b,ديربي,26.361465,50.034502,Café,7.2,0.924456223535867
599b4d5fb546183de5508b34,كيف النشاما,26.363351,50.040042,Café,6.2,0.9568498752497593
61fa61ce7d986c32aea83b86,مقهي نغُم بيروت,26.363684,50.028308,Coffee Shop,No rating,0.9465820553396729
548caaae498e99006ba7b6f0,بلياردو كوفي شوب,26.365961,50.037339,Coffee Shop,No rating,0.9647179402234116
4e8e626282315acfeb4c1d83,joffrey's (جوفريز),26.369312,50.027038,Coffee Shop,No rating,0.9887603706491522
627746f155ca2f777e98d67e,كيان,26.360741,50.042125,Coffee Shop,No rating,0.9984056815711283
5f49e15c6b9d542208fdf055,الفنار,26.369944,50.027285,Coffee Shop,No rating,0.9965258610110733
5c27afb63fffb400250eb73c,كرك ابو سعد,26.361217,50.042442,Café,No rating,0.29163603987866615
5d923897ca07eb0008521dd7,حار و بارد,26.360558,50.043741,Tea Room,8.4,0.9970701810690216
6060e0b9695f896a8417515c,frieze cafe (فريز كافيه),26.361303,50.045037,Café,8.2,0.8895054507055377
561ab83c498e249eac33fcf1,moroccan taste (المذاق المغربي),26.360928,50.044353,Coffee Shop,8.2,0.9979191038688103
5989e4c3fe37400278be91c3,مقهى ديوانية كيف النشاما,26.356911,50.060981,Coffee Shop,7.9,0.9741285600405827
5f7f5bb90349b662d39de197,القهوة الشعبية,26.367614,50.050518,Coffee Shop,7.4,0.9035851459215472
61e19aa97877204b5a4ef84b,تكية كرك,26.356586,50.045722,Coffee Shop,No rating,0.8992059466006853
601023e77adb2510769748cc,شاي المزاج,26.358192,50.045195,Café,No rating,0.46620355512304207
52ea51bf498ea73bc0a27247,ديوانية سلال البركة,26.358437,50.04442,Coffee Shop,No rating,0.9077262327497851
5d6574b0228cfc0008bb9eff,مستر شنب,26.352386,50.049453,Coffee Shop,No rating,0.9138860994067893
63e66a1a2349cf580e9540c4,shai rahy (شاهي راهي),26.351841,50.050056,Tea Room,No rating,0.996190200118021
63865717ea6fa5683e947349,رمث,26.361658,50.042679,Tea Room,No rating,0.6884556851945793
5e38962216c5a500075210f3,كوفي طرقي,26.362434,50.0436,Café,No rating,0.7998198627229717
5d77ae1af6e319000850d57e,مقهى كا,26.364438,50.04603,Café,No rating,0.8678475665938525
5fa3135d20f1307e2b6f1a7e,شاهي البرنس,26.366845,50.051076,Café,No rating,0.9174888449473564
5b2e8bddb2958f002c4acc2c,manto rose (مانتو روز),26.355189,50.070963,Coffee Shop,8.0,0.9633099707018107
63c6ba92ecdfb64922e5d5f9,blanco,26.360792,50.07441,Coffee Shop,8.5,0.9989026119905169
5c3b794b81635b002c2c0e35,three sixty coffee lounge,26.363435,50.073519,Coffee Shop,8.5,0.9783524686053855
608328c87177700efbddf96c,checkmate (تشك ميت),26.36128,50.069598,Café,8.0,0.9210501796196412
5bfaec0bf62e09002cbf2c9f,360 coffee,26.363435,50.073519,Coffee Shop,8.5,0.7485014442040313
5ff781b4b706c9702b4e129e,kyan (كيان),26.360959,50.073285,Coffee Shop,7.8,0.9860548901059083
5f6b489026cd3a0d6fbb277c,blue sky,26.353892,50.077517,Coffee Shop,8.0,0.9846883314525897
57eabc11498ed5a6d02b8e5e,ديوانية الأجاويد,26.357805,50.062283,Coffee Shop,6.3,0.9561458904889588
58920574ae975660dce09572,ديوانية قيصر العرب,26.359701,50.065156,Coffee Shop,No rating,0.956601410040065
54ae8cd2498ea51da46cc17e,ديوانية الشرقية أحلى قهوة,26.35967,50.065282,Café,No rating,0.9290528299152112
5cc5600c06fb60002c58f3b4,coffe time,26.358228,50.067438,Café,No rating,0.9256778441501973
62d53b48e5ee1960f0beb081,bran bakery,26.359179,50.06749,Coffee Shop,No rating,0.8969490542792956
51ba0681498e4a6d22fdf57d,ديوانية شلال القمة,26.360963,50.065887,Café,No rating,0.3731119232242502
5deeb432de533500081d1d14,شاي بوعبدالله وبو أسامه,26.36277,50.071268,Tea Room,No rating,0.2966881658091166
60428159c9783d048b3d4be1,flavor flake,26.360693,50.073297,Coffee Shop,No rating,0.7794871263963227
634aa46088b6b35172e15348,barn’s,26.358458,50.074602,Café,No rating,0.9762405143229841
5f75d0693f247374f3c5b571,drips coffee,26.360084,50.074285,Coffee Shop,No rating,0.9780108289420558
5de1ec67593a3f0008ea933d,الكرك,26.362803,50.072561,Café,No rating,0.8940813516507408
63575d01ab5b0b5507691f62,بارنز,26.35859,50.074807,Coffee Shop,No rating,0.9964490180447858
5f21a8bc67564371a9bea9cf,coffee stories,26.365566,50.069465,Coffee Shop,No rating,0.8966384727671778
615f261faeb2d334b67108f5,perfect coffee,26.36373,50.07272,Coffee Shop,No rating,0.9021461182487344
63d941209d68ca0d496f59f0,dewaneat almaknoon (ديوانية المكنون),26.357109,50.076075,Coffee Shop,No rating,0.284171730870767
5fc8ad3283274f58330f664b,عيال حمود,26.350472,50.073806,Café,No rating,0.06356568281345439
5143683de4b096dc04120580,دلة الكيف,26.367056,50.068302,Café,No rating,0.8563871087967037
5f52525f7904166514f0d018,dukkan waffle,26.368577,50.067013,Coffee Shop,No rating,0.5664385618005445
5fad0ee504f3bb5e7a66e022,بيت المنغولي,26.367478,50.072747,Coffee Shop,No rating,0.3055293861874049
58c409ea37da1d59345a6d0d,coffee week (أسبوع القهوة),26.370098,50.065723,Coffee Shop,No rating,0.6092573996045262
626ae676bbb0f805538204d5,tilio (تِليو),26.368964,50.08007,Café,8.6,0.9819034505605996
6042831a6b88de2c8be9e4fd,sikkat karak (سكة كرك),26.366198,50.075701,Café,7.9,0.9950306958061144
5aa004611f8ed6222a340b83,oosha’s coffee bar ️️,26.360322,50.079725,Coffee Shop,6.7,0.9266199414036214
625333a063cf257a89276647,blue brown coffee,26.361146,50.08072,Coffee Shop,No rating,0.06404190779870177
5f91cb9c7dc3cb19c1a887f4,شاهي العثمي,26.363996,50.078577,Tea Room,No rating,0.8773203027134472
646398eae367923fecacaac1,siplay cafe,26.351202,50.094106,Café,No rating,0.8854161274626525
641f5f2cd7b21e1b6781a6c7,سـٓرد,26.368802,50.08183,Tea Room,No rating,0.9685070346712494
627bf5ed5069294af3c34a33,tilio coffee,26.368965,50.08005,Coffee Shop,No rating,0.5140331079891918
641dc3e23b3b216bf8cb5e32,sard tea,26.369127,50.081711,Tea Room,No rating,0.6366299835391799
6050e74564ffbd08d67d5898,شاهي,26.352615,50.096023,Tea Room,No rating,0.9804747756048575
5f3e8c15294a1148cd19a9d3,llama (لاما),26.366323,50.094173,Café,9.5,0.9999689418487883
6422ef29af39757993118c4a,woods café & roastery (مقهى ومحمصة وودز),26.368026,50.092919,Coffee Shop,9.4,0.9988197902539522
61f3f9b8823c9d1403d25a3f,labiba,26.367464,50.09336,Coffee Shop,8.7,0.9811062913461638
5e1890a66908e00007fb2733,ch.1,26.366646,50.093792,Café,8.0,0.8756845734162931
61fbe5dd0f9a7813ed117ac7,مقهى ميلان,26.366878,50.093681,Coffee Shop,7.8,0.2748232273560196
5df27d6ae9527100088caede,one million,26.366385,50.09392,Coffee Shop,7.7,0.7872516641992691
58489d8fd60c8b28e4cba5c0,مقهى فنجال الشرق,26.355475,50.099281,Coffee Shop,No rating,0.06621597838352676
63e1f3075c01711039b58df2,بارنز,26.354367,50.099683,Coffee Shop,No rating,0.9789425734784094
5ceaea1cf2554e002c4996ae,caffee valley,26.364311,50.095591,Café,No rating,0.9201701986686406
617b3df2f8e15253afed0254,حلم,26.367854,50.098909,Café,No rating,0.9590757094199373
5df910737275f800086b4aed,1 مليون,26.366769,50.093759,Coffee Shop,No rating,0.028987607797666497
58e936e7fa7ed00ad6500f50,season coffee (الزمن المناسب),26.367337,50.09355,Coffee Shop,No rating,0.8696385866470655
5d9192881a6bf200084bde5d,scratch cafe,26.357353,50.140232,Café,No rating,0.8799291874152372
5be00e3ba2a6ce002c2f95ba,spark coffee,26.352667,50.141761,Coffee Shop,No rating,0.9066391974573726
51922699498ee2e5523fab35,مقهى سيراميك,26.366643,50.131107,Café,No rating,0.8727547544853147
56e30f98498edbe686d1f4ec,starbucks (ستاربكس),26.3612,50.160909,Coffee Shop,7.3,0.9241870528920315
5d1085ded5d77a00232eea78,ستاربكس,26.359594,50.170134,Coffee Shop,No rating,0.9531953661238391
51aefbda498e3cacc76288b4,tomn cafe,26.357525,50.176526,Café,No rating,0.31551975816052924
61d5bdc7cb83e94a0429fa99,kasbon (كاسبُن),26.357303,50.176997,Coffee Shop,No rating,0.8913585870611742
52d4550c498eec449ad0df5f,barncafe,26.354115,50.178722,Coffee Shop,No rating,0.9467352706717879
632648836c51a30b0c025cb6,road cafe,26.362929,50.178046,Coffee Shop,No rating,0.8957067282308242
6325fbcf11d5336278e784af,blue k,26.367045,50.177151,Café,No rating,0.1715755800109739
62f3aeb003f729502219c879,20 degrees specialty coffee,26.368221,50.179932,Coffee Shop,No rating,0.9292598842566232
6363f4e5a6197172971b50f6,grambon,26.3594,50.189979,Coffee Shop,8.4,0.9706792249596072
62fa7cf7cd4b184a5584bc2e,ratio speciality coffee (ريشيو للقهوة المختصة),26.362719,50.198088,Coffee Shop,9.0,0.9951278165353641
50145c99e4b0535570e35e28,derby coffee (دربي كافيه),26.355645,50.189483,Coffee Shop,7.4,0.933304943575356
62c150e7d9492039ee22bb9c,ripoz specialty coffee (قهوة ومحمصة ريبوز),26.362829,50.198276,Coffee Shop,8.1,0.7572675692939718
644eb5ce67a13234b06212d5,ruba’a (رُباع),26.366799,50.195457,Tea Room,8.1,0.9914797138509002
5d601e345c9a0300083ead63,seven degrees coffee,26.361687,50.195161,Coffee Shop,7.6,0.9634899362482935
62a4f854215a4540f928fb58,olabs,26.36298,50.198744,Coffee Shop,7.7,0.8996129807993387
5f494df6ba18ff34e8a9fd78,sunrise pastry (سنرايز باستري),26.353518,50.202738,Café,7.8,0.9132901642013502
5d04c2252f88ea002375dc49,art coffee,26.366803,50.195176,Coffee Shop,7.4,0.9427391218825381
5bd31c24947c05002cb70d0d,lark,26.354638,50.200259,Coffee Shop,7.1,0.96751042697361
598b179cb23dfa57481d5acc,the piato,26.366828,50.185837,Café,7.2,0.2207406333792304
61f9ac87a16d5a782d6f1fc7,فلتر كافيه,26.35445,50.192135,Café,No rating,0.6838341203141243
4fd89c30e4b02076fe72d60b,derby rakah,26.358763,50.188251,Coffee Shop,No rating,0.8879773549930486
61d9c3dc37fd881444cca7f5,seattle’s best coffee & cinnabon,26.359749,50.189429,Café,No rating,0.7436905850377625
5e0e5b27beecb00007d4165c,perfect coffee (القهوة المثالية),26.359917,50.191314,Coffee Shop,No rating,0.9826905975626558
64113ecc356a3f5693991c5d,barn’s,26.360446,50.192006,Coffee Shop,No rating,0.9975075462481683
5c7e74a09b0473002c41ac5b,قهوة ام صقر,26.360546,50.188728,Café,No rating,0.7641938352475545
63c65a29bd67a5495d009c8e,بارنز,26.360357,50.192933,Café,No rating,0.16102002730426723
61ffbc06c0b5c34a3b9814d1,the coffeeholics,26.354901,50.196434,Café,No rating,0.4208739870492604
519d09f8498e325fc79f6c23,mg's,26.351069,50.193637,Café,No rating,0.09329792963514986
5b8a51e4c53093002c40c82e,azores restaurant & café,26.349374,50.186642,Café,No rating,0.7596848736864519
62699b44e561b2407e78507a,yellow melon,26.350579,50.195929,Coffee Shop,No rating,0.8200924337120026
63a2a6728381ce412487f41d,عريكة ماضينا,26.362814,50.19765,Café,No rating,0.9311882366202828
62fe5633cc4dee5a7cbb16ab,ريشيو,26.362548,50.198156,Coffee Shop,No rating,0.1747222604927293
6404c8c6dd7c0e2c43067358,repose,26.36276,50.198221,Coffee Shop,No rating,0.004020490725316567
600ad9e38653f7304a4126ef,darts cafe - alrakkah (drive-thru),26.363533,50.198928,Coffee Shop,No rating,0.9202665297278341
56fcfd0e498e9d45c8cf9e57,gosto,26.365367,50.184035,Café,No rating,0.33441346681436546
6441809814c27a300e27bdba,atia cafe,26.367219,50.195217,Café,No rating,0.9589618295321607
5f4eb1f191d2f85d8975c370,ستاربكس,26.345216,50.194017,Coffee Shop,No rating,0.8851091544444584
5a5a4f28b8fd9d5dbe5d25ca,coffee juniors,26.368856,50.185068,Coffee Shop,No rating,0.40925325851769795
620b804a2f74d54ad3bb45d5,the hub (ذا هب),26.360464,50.206327,Coffee Shop,9.2,0.9952906401472927
60b153a0d59c680d61f5f4b0,title (تايتل),26.360902,50.206339,Coffee Shop,9.2,0.9943136984757205
60b5ea3ebb9d6869f16013cf,hûge (هيوج),26.360886,50.206747,Coffee Shop,8.8,0.9919590185493669
6400ea86a9886c2b50a13612,bling,26.362172,50.206266,Café,9.4,0.9833544169035959
625e9fb8047b125a73beeb89,detective cafe,26.35211,50.211592,Coffee Shop,9.2,0.9659823900001252
61436ab962925c5a10f7f314,repeat (ريبيت),26.361046,50.206477,Coffee Shop,8.7,0.989328790972057
63db98f719d06701ee528b91,mocha coffee roasters (مقهى ومحمصة مخا),26.352279,50.211451,Coffee Shop,8.7,0.9693641111709522
63c00cd6cc9c202c67f3b283,kashida (كشيدة),26.351955,50.211275,Café,8.8,0.9724201851179218
6462916b1311442b79f85ddb,lounge exit-7 (مقهى مخرج ٧),26.360069,50.206666,Café,8.3,0.9939755263586378
5dfcf330867d0c0008b12fcf,blue sky (بلو سكاي),26.362892,50.2063,Coffee Shop,8.7,0.9949775178166607
62e114107258f6166137b251,destination 35 (دستينيشن 35),26.360166,50.206765,Café,8.0,0.9201037061159053
635d5f707ff1a87e364770b6,light (لايت),26.352009,50.21164,Coffee Shop,8.3,0.9111985070327275
60e9c62d08b84d447ebcb05f,fliter roastery (محمصة فلتر),26.360955,50.207554,Coffee Shop,6.5,0.4296163625205095
6452618dafa8d22c22af7e21,blue coffee,26.36014,50.206604,Coffee Shop,No rating,0.10111346300772786
641a78d17703294cbb2b66d0,watad coffee,26.361679,50.206617,Coffee Shop,No rating,0.916884808557007
60f1bac0905f5b21a7e5e94e,filter coffee,26.361874,50.206339,Coffee Shop,No rating,0.8802995954459488
6408dadf6bfe407e3d523d44,white moon (وايت مون),26.35148,50.211645,Coffee Shop,No rating,0.8990744103906514
63d680ad2a437d43e83eb6fb,cinnabon (سينابون),26.351313,50.211821,Café,No rating,0.9110106336343483
63f08f1e14820c42f68ce6d7,mokha,26.35109,50.211395,Coffee Shop,No rating,0.038676870279680864
63cce0dfd10c7424f1e36dec,woods specialty café & roastery,26.350581,50.211212,Coffee Shop,No rating,0.49533447727358126
603ed0764745e341a535dd34,dose cafe rakkah,26.362914,50.205222,Coffee Shop,No rating,0.9369246377174635
61811ab812b0ba7b366ad47c,rebeat,26.349336,50.209431,Coffee Shop,No rating,0.9335178667601859
5d88bb9c797a1500085d6895,دانكن,26.364537,50.208526,Coffee Shop,No rating,0.01976428150950013
617d9093811f7d702bc201b8,fun&art,26.364742,50.207573,Coffee Shop,No rating,0.9601583146503676
5fa5cd976ba8d4344cdb48e4,شاهي جمر (البرنس),26.364447,50.212919,Tea Room,No rating,0.9532445735900101
5fa5ccb988c7576780e875cf,charcoal tea (the prince),26.364601,50.212996,Tea Room,No rating,0.05850377625530742
5b9bd9395d891b002ca36d5f,mustang cafe (موستنج كافيه),26.348143,50.205211,Café,No rating,0.9372377600480956
5d289040a0b7830023702064,choco art,26.365133,50.20276,Coffee Shop,No rating,0.39824150499116995
60f885e55c7b085b8aa93289,oaisis cafee,26.366584,50.20711,Café,No rating,0.9830610365378826
5da323d24817b90007e6d208,ستاربكس,26.372364,49.970428,Coffee Shop,9.3,0.9997148092960256
5b50e2e11953f3002cafc1cd,monroe (مونرو),26.372156,49.969886,Coffee Shop,9.2,0.9996606424075879
5c931e030d2be7002c2ce98a,dr.cafe,26.373247,49.976353,Coffee Shop,8.1,0.4531874502955799
5c690e7d178a2a002c59dc61,3/4 cafe,26.373216,49.976243,Café,7.7,0.9797241220299561
6285e654a6b3ec38076569f9,repeat,26.373668,49.975842,Coffee Shop,7.5,0.9953229895448996
587756dc735a4d73a762fb5f,coffee line (كوفي لاين),26.373943,49.963662,Coffee Shop,7.9,0.9990649339065962
632198ba58d7157812019565,in case,26.37372,49.975574,Coffee Shop,No rating,0.5837379495536743
5bab4d8cbf7dde002cf26a46,black vibes - alasala university,26.373195,49.9737,Coffee Shop,No rating,0.9920077621558401
62a83a61cd43854fc288da61,eeffect,26.373653,49.97597,Coffee Shop,No rating,0.7257449748056515
5c9b4e6fa22db7002c966355,cf | coffee fix,26.373013,49.974933,Coffee Shop,No rating,0.9809501569681591
5c7cec6bba57b4002ca7c18a,pink box,26.372646,49.976216,Coffee Shop,No rating,0.9771288968055357
5fe660935be53b32a60b5c47,fuel cafe,26.373375,49.971281,Café,No rating,0.39785297014129184
642d953725534637664a4db5,داون تاون الامانه,26.373617,49.970469,Café,No rating,0.6608103300328949
617c9517432a2a1cc71aa879,شاي مقانيص,26.373709,49.969856,Café,No rating,0.9888210538549961
5d89edbaea4e740008ede518,سكن طلاب جامعة الاصاله,26.372233,49.970043,Café,No rating,0.9344308797285588
6386634d41b190285a586d90,شاهي سهيل,26.372826,49.96898,Tea Room,No rating,0.9326658995230183
63530c52ee75ac3029a71c52,شاهي قناد,26.374797,49.964611,Tea Room,No rating,0.9875130304075552
616b046edf3031492222f56b,dakkat saaf (دكة سعف),26.37581,49.962586,Tea Room,No rating,0.9871655528727503
616b038e5c4b4665eb568a55,دكة سعف,26.375783,49.962525,Coffee Shop,No rating,0.5558224530559785
60cb5bb9ffdc401cd55fb7b3,tim hortons (تيم هورتونز),26.378271,49.991405,Coffee Shop,7.7,0.9043425222826874
5efad8bc4f56200008b3fb9d,starbucks,26.378156,49.991821,Coffee Shop,7.4,0.9463498351689876
644a06ddf12b4635432e5a82,ستاربكس,26.378032,49.991617,Coffee Shop,No rating,0.43525841385758024
5e70a3af2144410008a577bd,kasbon,26.378125,49.991711,Coffee Shop,No rating,0.6947733508988815
5fbcc7f67ada11293d2e3b27,mamma bunz cafe,26.377101,50.003594,Café,No rating,0.999022526934727
5f9b36430e8bb552431b05d5,شاهي سعيد,26.377087,50.004368,Tea Room,No rating,0.9936245725034875
57381abc498e9e5d09cadf6f,dutch bros,26.385374,49.984811,Coffee Shop,No rating,0.9997352236966494
63601f6cc117e04c87ba8e7d,شاي الأصيل,26.378511,50.006,Café,No rating,0.0017212241523333774
618d4854d63fe75c409ed2be,شاهي سكر زيادة,26.377947,50.006353,Tea Room,No rating,0.9806630571868198
5b1451e1724750002c0e3907,s cafea,26.379783,50.023734,Café,7.7,0.5922067694712464
5fe1fb8ae80f01698ace222d,أستكانة الذكريات,26.378709,50.008144,Café,No rating,0.9739846972940203
5fb42860b06b2a74dcf30322,إستكانة چاي,26.378077,50.007187,Tea Room,No rating,0.9915715761594724
63544af5a81b823a313b57fb,شاهي مشبب,26.378354,50.007093,Tea Room,No rating,0.7044347587192209
53318ebc498eadf34b3bf7ec,ستاربكس,26.378536,50.023176,Coffee Shop,No rating,0.07179184703311432
5d2478ea38c7d600247460fd,coffee valley,26.373938,50.024333,Coffee Shop,No rating,0.9988060884702596
5a48cc203149b949550ab7b7,1992 coffee,26.379798,50.023671,Coffee Shop,No rating,0.9808056270844421
5fdb73ffd0388d216e0726f8,بيانولا,26.372985,50.024467,Coffee Shop,No rating,0.9998029577615615
5e637861f3bac0000833511c,ستاربكس,26.38441,50.031037,Coffee Shop,7.9,0.9884488855862699
5d7e42728e712500084e1a3b,ستاربكس,26.377213,50.041764,Coffee Shop,7.8,0.9778762436201381
521b9ebe11d24a68b246a6a5,ديوانية وقت القهوة,26.374046,50.043193,Café,6.8,0.9793773875953744
5c6cf292bfc6d0002c02520b,scafe1992,26.380076,50.024426,Café,No rating,0.2768073343596024
5ce860fa00b068002eb7d090,almughaidi cafe (المغيدي كافيه),26.382149,50.031576,Coffee Shop,No rating,0.6388584094081573
5d984af3fa257900087f3ba8,thermocup (ثيرموكب),26.370711,50.054375,Coffee Shop,8.9,0.9723064818361579
62374c88b16a4606d058d8c3,شاي بخار,26.369921,50.05298,Tea Room,8.4,0.9850713819842017
5ceece0ad552c7002cfdb751,kafeena (كافينا),26.378439,50.04884,Coffee Shop,7.9,0.9920284078556417
5f0cb08ce9cf7a786163a528,zelebrity cafe,26.378192,50.058436,Coffee Shop,9.3,0.9972875881275041
61292ed0a1cbe32f813c66d0,adam (ادم),26.370354,50.05709,Coffee Shop,8.9,0.9827006097750355
57efb3d4498ec9f0b11f9c07,the coffee lab (مختبر القهوة),26.384123,50.054619,Coffee Shop,8.9,0.9979915728883045
5ccaa8e33fcee8003976e9cd,ekkah specialty coffee (إكّة للقهوة المختصة),26.369994,50.058057,Coffee Shop,8.7,0.9284627250421873
62aa1eb5c43c0d3856e2f1f4,شاي ابو شنب,26.381342,50.057009,Tea Room,8.4,0.9782178832834677
60afff0c09b4f574c24d85b2,barn’s (بارنز),26.382694,50.055268,Coffee Shop,7.9,0.9942231838746078
5f400d05b6799a578b003375,sever,26.369747,50.057648,Coffee Shop,7.6,0.8761193875332581
63fdb86963a8546ec2a51537,mêler bakery & coffee,26.378166,50.058582,Coffee Shop,7.3,0.9429772343751618
55fc6e72498e48f49407e252,ديوانية مركاز الحجاز,26.376826,50.060276,Café,6.5,0.2814593189982711
58f0c95c42d8c2387ae817c5,ديوانية الدكة,26.377144,50.047051,Café,No rating,0.9631857380969635
60dc9c2c374ee047da8c11d8,الليل وآخره,26.378104,50.048882,Coffee Shop,No rating,0.8045510544242337
5fc6a476e8bed7779392b5ed,شاهي مشكل,26.378039,50.049064,Tea Room,No rating,0.8688931910179827
6374011d41d29d58e496d410,ديوانية ابو عدالله,26.378616,50.04884,Café,No rating,0.4794343275392627
63d5292d2790aa48c3718c33,ورق الشاي,26.381438,50.047775,Café,No rating,0.36844284782541176
6382603823dea11680ae54f4,شاي دهر,26.370828,50.054831,Café,No rating,0.9805783027755635
5e6931c0c74fb10008532e67,مطبخ الشيف سامي السري,26.381935,50.052237,Café,No rating,0.9368173677181576
5dfa757715521a0008fbb9ff,قهوة طيبة,26.369977,50.056937,Coffee Shop,No rating,0.9179236590643214
621a77e67ef4586cf1fde541,adam coffee,26.370521,50.057572,Coffee Shop,No rating,0.8962864803867775
5a36a3bab3d8e23ef68b1fdf,star cafe,26.370655,50.057705,Coffee Shop,No rating,0.7905231227935772
5f636b455dbfbc38dd108a03,dough (دووه),26.369854,50.057443,Coffee Shop,No rating,0.33612166513101366
63db485e4726795e01a5f840,7’shf (خَشْف),26.369823,50.057691,Coffee Shop,No rating,0.9592931164784197
5999bcd91c675b372329ea5f,dalin sweet & coffee,26.383799,50.05429,Coffee Shop,No rating,0.1822595840278281
5a6b348a1213847e73556b0d,konafa time (كنافة تايم),26.382141,50.056385,Café,No rating,0.43050738666362987
5abe900c6c08d132a969ac3d,أوكيد كافيه النسائي,26.383508,50.054545,Café,No rating,0.5076454815566346
5d7fdcf065ba98000872671e,شغف,26.382188,50.056432,Coffee Shop,No rating,0.5083908771857174
5464d9f3498ebe2ff401036a,choco time (شوكوتايم),26.379991,50.058138,Café,No rating,0.7940119884463678
602429dc7ea81e04984a9683,صهوه,26.383997,50.054508,Café,No rating,0.8044268218193865
584c394d0319b8682a7dfc47,كرك و چباتي kark wa shapaty,26.372248,50.063735,Coffee Shop,8.3,0.988032259066392
5162f709e4b05bfe7666f720,قهوة الطريق,26.373558,50.076881,Coffee Shop,7.6,0.9539407617529221
5aca4b112496235a5b633f39,coffee valley (وادي القهوة),26.388118,50.063093,Coffee Shop,7.4,0.9927634507676539
5a96fd9923a2e655e5caed6b,dose never over dose,26.375797,50.061673,Coffee Shop,No rating,0.9872868634373091
5de5028a66a0e00008a9070e,tea world,26.376473,50.061257,Tea Room,No rating,0.803774600643939
53118e57498ea3c7e9c63cfb,بيت ابو مسك,26.383792,50.07122,Tea Room,No rating,0.1554253413808454
63df3934d0caf5245cf65276,بارنز,26.382683,50.072858,Coffee Shop,No rating,0.9940264822502666
635313937d93df7565d6b7b2,عقيق,26.388003,50.063064,Tea Room,No rating,0.9782592941517502
5e0c6fc666bc6d000896245f,tim hortons,26.379768,50.086661,Coffee Shop,9.0,0.9960659675131738
4e42e8b6628484fb528fc142,road café,26.377219,50.089819,Coffee Shop,8.8,0.9914175975484766
61ed331073b464380e5b5bd8,ratio speciality coffee (ريشيو للقهوة المختصة),26.37146,50.089934,Coffee Shop,8.7,0.9921008768751359
5fecc293987d4c53f1a89268,istikanat althekrayat (استكانة الذكريات),26.369871,50.09093,Tea Room,8.5,0.8947542782603294
5e3d16cd6dee0c000886f9d5,starbucks (ستاربكس),26.371507,50.095822,Coffee Shop,9.1,0.9977120495273984
5e12275af8a01c00083b7384,تيم هورتنز,26.380045,50.086943,Coffee Shop,7.7,0.9487954613688363
5efb7551d687ac000a35bfcd,norm cafe,26.371407,50.089814,Café,7.7,0.7273301377946642
5b646af54acb1900390ed8a7,coffee valley (وادي القهوة),26.373408,50.091061,Coffee Shop,6.7,0.9730518774652408
603aa627fa3495799fb30036,مقهى الكيف الخليجي,26.37202,50.08473,Tea Room,No rating,0.9281314380959282
5db88d542e182800070f43d2,park coffee (بارك كوفي),26.37109,50.082562,Coffee Shop,No rating,0.986396529769238
6394d48f4a0e2f6f3ff22f62,شاهي أبو بادي,26.372994,50.088619,Tea Room,No rating,0.9064735539842431
61296f0c77ca083643640f2c,على مزاجك,26.372805,50.088665,Tea Room,No rating,0.8779725238888947
6321e7622633d331fee146bc,شاهي فواز اليامي القوي,26.372943,50.088779,Café,No rating,0.2573581936579255
6274acd68f52b319bff1c1cf,ديوانية ابو طارق,26.370027,50.087116,Café,No rating,0.5670597248247803
5ccc4d54f5e9d7002b1e3755,coffee valley,26.380045,50.086707,Coffee Shop,No rating,0.8663464226186163
621a4805de8556236faea363,ratio,26.371735,50.08956,Coffee Shop,No rating,0.28856128290869937
63767d9be461770b93a44c50,روقاااان,26.37124,50.090116,Café,No rating,0.7323615582909735
62b2c903cd642a7011b44fa5,ريشيو,26.383809,50.084171,Café,No rating,0.8979222096839315
5acbc00a92e7a9499c988dd6,8oz speciality coffee,26.372696,50.099472,Coffee Shop,9.1,0.9978673402834574
5c17b54bc66666002cdf5850,one cup speciality coffee,26.377264,50.10152,Coffee Shop,9.0,0.9160394645574731
604169e52c89060027b783a8,mina (مينا),26.373081,50.100454,Coffee Shop,8.2,0.9541167579431221
5fde14086fbcfa198b9ecac9,lambda (لامدا),26.381123,50.098818,Coffee Shop,9.4,0.9927013344652303
6311ab76ac1af96c13bea08e,bright (برايت),26.372574,50.098952,Café,8.1,0.9312165477829656
5e161f2f4d162a0007d43afc,22 cafe,26.377774,50.103692,Coffee Shop,8.1,0.9550070916111933
58e53e79ac136909db00a489,turkistachio (تركستاشيو),26.382325,50.103675,Café,8.8,0.9741182073235121
62f88b59c1b5545821608c0c,chart (تشارت),26.384994,50.100857,Coffee Shop,9.4,0.9979087511517398
5dfcc1d6b71b7a0007bad314,chimney roasting & beans (محمصه مدخنه للقهوة المختصة),26.377618,50.101249,Coffee Shop,7.9,0.896555651030613
6124e9fe497683313c3b939d,the garden (ذا قاردن),26.38441,50.096408,Coffee Shop,9.2,0.9933328502065367
598c0a0cbcbf7a39a42976a5,park coffee,26.382487,50.097539,Coffee Shop,8.5,0.9828351950969532
60a1151c8407090595cafa5d,kyan (كيان),26.383775,50.097323,Coffee Shop,8.4,0.9894609340221341
5d1890024dcbca0023e5fc12,sofa sugar (صفة قند),26.375387,50.113311,Coffee Shop,8.6,0.9836944706138125
5e236dc9477b08000737748b,twenty two cafe,26.377743,50.103582,Coffee Shop,7.7,0.866253248164981
60183758d3491354d89769d7,operations (اوبيريشنز),26.383302,50.097029,Coffee Shop,7.9,0.8945989875042705
5b7195f2491be700394ea04f,razonah cafe,26.378036,50.103564,Café,7.2,0.7044609857857195
51bf60b9498e6a6ff7d6a9db,derby coffee,26.38308,50.1046,Coffee Shop,7.0,0.9328522770801196
60c4d1f6b09c003e8980edd6,third (ثيرد),26.387555,50.104488,Coffee Shop,7.1,0.8473595395111447
5238bc2a11d216babc58dd4f,al jood cafe (قهوة الجود),26.379,50.099583,Café,6.1,0.9223235638193243
5f5d5f20fd76be70adaf8c65,قهوة فصيّل المفضلة,26.372788,50.099802,Coffee Shop,No rating,0.14917230027020592
5c6ad9e0d807ee002cb3899d,cafe,26.373637,50.102476,Coffee Shop,No rating,0.8119635998467798
631f93918cbaf707b8aa86bf,شاهي خالد,26.373666,50.102447,Tea Room,No rating,0.9669023635253072
5fd541eb819cc348d4a39e2b,mixed tea (شاهي مشكل),26.37356,50.102556,Tea Room,5.3,0.47455819779901237
5224dafd11d220f82c622928,مهيّلة الجود,26.380293,50.101135,Café,No rating,0.7069559905997329
5e14db4e73c2780008c3301e,گمبل,26.380972,50.103322,Café,No rating,0.05037632126551613
6006c994b50b926ccc7a3f99,onda coffee (اوندا كافيه),26.376212,50.122733,Coffee Shop,8.9,0.9981882745126458
4d29ed9a77a2a1cdb72870b7,caffe latte,26.375052,50.11683,Café,5.7,0.48786143923472713
631a3b331d8a0e13617ac38c,تلقيمة,26.378841,50.116981,Tea Room,No rating,0.8989160705227087
632ca6bcc6fe0233d584c0e1,720 cafè,26.372068,50.124125,Café,No rating,0.8814820949758264
591c82964a7aae10ea24b32b,mai ward cafe,26.374677,50.125266,Café,No rating,0.8689967181886886
589b556214fb4104e4310f43,varnda,26.374677,50.125266,Café,No rating,0.5297174743511435
5dde4faaa37e5a0008c9b7b1,joffreys,26.37892,50.110606,Coffee Shop,No rating,0.7576325406602963
63ff635407863c02217c8839,طعيم | شاي مُختص,26.372916,50.127513,Tea Room,No rating,0.9306471483440829
537061fa498eddbbc8ba2e71,derby coffee (دربي كوفي),26.385984,50.118029,Coffee Shop,No rating,0.05278850434296481
6213f5d6ec262b07c838fbb0,tag,26.384157,50.125883,Coffee Shop,No rating,0.00412038139409688
63835cb82c328b06fe71c9bd,cherry coffee,26.378167,50.148073,Coffee Shop,8.0,0.9021254128145932
61de97886b24ec2e64d18e31,كواليس,26.380289,50.148443,Coffee Shop,7.9,0.9496443841686251
639a29554d21c322b9be1208,ستاربكس,26.380995,50.148118,Coffee Shop,7.7,0.9945958816891494
600078b67e4ae01a71879b59,bikers house coffee,26.373415,50.139492,Coffee Shop,No rating,0.0037580362966260494
